country,state,city,station,last_update,latitude,longitude,pollutant_id,pollutant_min,pollutant_max,pollutant_avg,year,month,day,hour,weekday,pollutant_range,aqi_category,season
India,Andhra Pradesh,Chittoor,"Gangineni Cheruvu, Chittoor - Appcb",2026-03-13 15:00:00,13.20488,79.097889,Ozone,18.0,38.0,25.0,2026,3,13,15,Friday,20.0,N/A,Summer
India,Andhra Pradesh,Machilipatnam,"Srinivas Nagar Colony, Machilipatnam - Appcb",2026-03-13 15:00:00,16.186555,81.13219,No2,10.0,20.0,15.0,2026,3,13,15,Friday,10.0,N/A,Summer
India,Andhra Pradesh,Kadapa,"Yerramukkapalli, Kadapa - Appcb",2026-03-13 15:00:00,14.465052,78.824187,Pm10,52.0,76.0,63.0,2026,3,13,15,Friday,24.0,N/A,Summer
India,Andhra Pradesh,Chittoor,"Gangineni Cheruvu, Chittoor - Appcb",2026-03-13 15:00:00,13.20488,79.097889,No2,25.0,40.0,29.0,2026,3,13,15,Friday,15.0,N/A,Summer
India,Andhra Pradesh,Eluru,"District Court, Eluru - Appcb",2026-03-13 15:00:00,16.711754,81.092095,Co,23.0,44.0,29.0,2026,3,13,15,Friday,21.0,N/A,Summer
India,Andhra Pradesh,Eluru,"District Court, Eluru - Appcb",2026-03-13 15:00:00,16.711754,81.092095,Ozone,2.0,41.0,14.0,2026,3,13,15,Friday,39.0,N/A,Summer
India,Andhra Pradesh,Chittoor,"Gangineni Cheruvu, Chittoor - Appcb",2026-03-13 15:00:00,13.20488,79.097889,So2,12.0,24.0,14.0,2026,3,13,15,Friday,12.0,N/A,Summer
India,Andhra Pradesh,Amaravati,"Secretariat, Amaravati - Appcb",2026-03-13 15:00:00,16.5150833,80.5181667,Pm10,38.0,100.0,66.0,2026,3,13,15,Friday,62.0,N/A,Summer
India,Andhra Pradesh,Guntur,"Rajendra Nagar North, Guntur - Appcb",2026-03-13 15:00:00,16.316553,80.413302,No2,12.0,18.0,15.0,2026,3,13,15,Friday,6.0,N/A,Summer
India,Andhra Pradesh,Anantapur,"Gulzarpet, Anantapur - Appcb",2026-03-13 15:00:00,14.675886,77.593027,Pm2.5,40.0,58.0,51.0,2026,3,13,15,Friday,18.0,N/A,Summer
India,Andhra Pradesh,Anantapur,"Gulzarpet, Anantapur - Appcb",2026-03-13 15:00:00,14.675886,77.593027,Ozone,35.0,40.0,37.0,2026,3,13,15,Friday,5.0,N/A,Summer
India,Andhra Pradesh,Anantapur,"Gulzarpet, Anantapur - Appcb",2026-03-13 15:00:00,14.675886,77.593027,So2,10.0,19.0,12.0,2026,3,13,15,Friday,9.0,N/A,Summer
India,Andhra Pradesh,Amaravati,"Secretariat, Amaravati - Appcb",2026-03-13 15:00:00,16.5150833,80.5181667,Nh3,2.0,2.0,2.0,2026,3,13,15,Friday,0.0,N/A,Summer
India,Andhra Pradesh,Kadapa,"Yerramukkapalli, Kadapa - Appcb",2026-03-13 15:00:00,14.465052,78.824187,Co,22.0,52.0,45.0,2026,3,13,15,Friday,30.0,N/A,Summer
India,Andhra Pradesh,Kadapa,"Yerramukkapalli, Kadapa - Appcb",2026-03-13 15:00:00,14.465052,78.824187,Ozone,13.0,15.0,14.0,2026,3,13,15,Friday,2.0,N/A,Summer
India,Andhra Pradesh,Machilipatnam,"Srinivas Nagar Colony, Machilipatnam - Appcb",2026-03-13 15:00:00,16.186555,81.13219,Nh3,3.0,6.0,5.0,2026,3,13,15,Friday,3.0,N/A,Summer
India,Andhra Pradesh,Machilipatnam,"Srinivas Nagar Colony, Machilipatnam - Appcb",2026-03-13 15:00:00,16.186555,81.13219,Co,13.0,40.0,26.0,2026,3,13,15,Friday,27.0,N/A,Summer
India,Andhra Pradesh,Tirumala,"Toll Gate, Tirumala - Appcb",2026-03-13 15:00:00,13.67,79.35,Co,20.0,39.0,26.0,2026,3,13,15,Friday,19.0,N/A,Summer
India,Assam,Byrnihat,"Central Academy For Sfs, Byrnihat - Pcba",2026-03-13 15:00:00,26.071318,91.87488,Pm2.5,83.0,213.0,162.0,2026,3,13,15,Friday,130.0,N/A,Summer
India,Assam,Byrnihat,"Central Academy For Sfs, Byrnihat - Pcba",2026-03-13 15:00:00,26.071318,91.87488,So2,18.0,32.0,30.0,2026,3,13,15,Friday,14.0,N/A,Summer
India,Assam,Byrnihat,"Central Academy For Sfs, Byrnihat - Pcba",2026-03-13 15:00:00,26.071318,91.87488,Ozone,12.0,32.0,18.0,2026,3,13,15,Friday,20.0,N/A,Summer
India,Assam,Guwahati,"Iitg, Guwahati - Pcba",2026-03-13 15:00:00,26.2028636,91.70046436,So2,32.0,34.0,32.0,2026,3,13,15,Friday,2.0,N/A,Summer
India,Andhra Pradesh,Rajamahendravaram,"Anand Kala Kshetram, Rajamahendravaram - Appcb",2026-03-13 15:00:00,16.9872867,81.7363176,Pm10,32.0,108.0,52.0,2026,3,13,15,Friday,76.0,N/A,Summer
India,Andhra Pradesh,Rajamahendravaram,"Anand Kala Kshetram, Rajamahendravaram - Appcb",2026-03-13 15:00:00,16.9872867,81.7363176,No2,9.0,36.0,20.0,2026,3,13,15,Friday,27.0,N/A,Summer
India,Andhra Pradesh,Tirupati,"Vaikuntapuram, Tirupati - Appcb",2026-03-13 15:00:00,13.615387,79.40923,No2,22.0,33.0,25.0,2026,3,13,15,Friday,11.0,N/A,Summer
India,Andhra Pradesh,Rajamahendravaram,"Anand Kala Kshetram, Rajamahendravaram - Appcb",2026-03-13 15:00:00,16.9872867,81.7363176,Ozone,2.0,114.0,44.0,2026,3,13,15,Friday,112.0,N/A,Summer
India,Andhra Pradesh,Guntur,"Rajendra Nagar North, Guntur - Appcb",2026-03-13 15:00:00,16.316553,80.413302,Pm2.5,34.0,91.0,48.0,2026,3,13,15,Friday,57.0,N/A,Summer
India,Andhra Pradesh,Rajamahendravaram,"Anand Kala Kshetram, Rajamahendravaram - Appcb",2026-03-13 15:00:00,16.9872867,81.7363176,Pm2.5,22.0,88.0,39.0,2026,3,13,15,Friday,66.0,N/A,Summer
India,Andhra Pradesh,Vijayawada,"Hb Colony, Vijayawada - Appcb",2026-03-13 15:00:00,16.536107,80.594233,Nh3,3.0,4.0,3.0,2026,3,13,15,Friday,1.0,N/A,Summer
India,Andhra Pradesh,Vijayawada,"Kanuru, Vijayawada - Appcb",2026-03-13 15:00:00,16.486692,80.699436,Pm2.5,37.0,157.0,80.0,2026,3,13,15,Friday,120.0,N/A,Summer
India,Andhra Pradesh,Vijayawada,"Kanuru, Vijayawada - Appcb",2026-03-13 15:00:00,16.486692,80.699436,Nh3,4.0,7.0,5.0,2026,3,13,15,Friday,3.0,N/A,Summer
India,Andhra Pradesh,Vijayawada,"Rajiv Gandhi Park, Vijayawada - Appcb",2026-03-13 15:00:00,16.509717,80.612222,Nh3,4.0,7.0,5.0,2026,3,13,15,Friday,3.0,N/A,Summer
India,Andhra Pradesh,Vijayawada,"Rajiv Nagar, Vijayawada - Appcb",2026-03-13 15:00:00,16.554731,80.64911,Pm2.5,52.0,68.0,62.0,2026,3,13,15,Friday,16.0,N/A,Summer
India,Andhra Pradesh,Vijayawada,"Hb Colony, Vijayawada - Appcb",2026-03-13 15:00:00,16.536107,80.594233,Pm10,47.0,129.0,65.0,2026,3,13,15,Friday,82.0,N/A,Summer
India,Andhra Pradesh,Tirumala,"Toll Gate, Tirumala - Appcb",2026-03-13 15:00:00,13.67,79.35,Pm10,48.0,114.0,72.0,2026,3,13,15,Friday,66.0,N/A,Summer
India,Assam,Guwahati,"Lgbi Airport, Guwahati - Pcba",2026-03-13 15:00:00,26.10887,91.589544,Co,12.0,61.0,50.0,2026,3,13,15,Friday,49.0,N/A,Summer
India,Assam,Guwahati,"Pan Bazaar, Guwahati - Pcba",2026-03-13 15:00:00,26.1875,91.744194,Pm2.5,1.0,98.0,62.0,2026,3,13,15,Friday,97.0,N/A,Summer
India,Andhra Pradesh,Visakhapatnam,"Gvm Corporation, Visakhapatnam - Appcb",2026-03-13 15:00:00,17.72,83.3,Pm2.5,25.0,200.0,73.0,2026,3,13,15,Friday,175.0,N/A,Summer
India,Andhra Pradesh,Visakhapatnam,"Gvm Corporation, Visakhapatnam - Appcb",2026-03-13 15:00:00,17.72,83.3,Nh3,3.0,4.0,3.0,2026,3,13,15,Friday,1.0,N/A,Summer
India,Assam,Guwahati,"Pan Bazaar, Guwahati - Pcba",2026-03-13 15:00:00,26.1875,91.744194,No2,14.0,40.0,26.0,2026,3,13,15,Friday,26.0,N/A,Summer
India,Assam,Guwahati,"Pan Bazaar, Guwahati - Pcba",2026-03-13 15:00:00,26.1875,91.744194,Ozone,10.0,26.0,10.0,2026,3,13,15,Friday,16.0,N/A,Summer
India,Assam,Guwahati,"Railway Colony, Guwahati - Pcba",2026-03-13 15:00:00,26.181742,91.78063,So2,4.0,9.0,6.0,2026,3,13,15,Friday,5.0,N/A,Summer
India,Assam,Nagaon,"Christianpatty, Nagaon - Pcba",2026-03-13 15:00:00,26.349082,92.68449,So2,7.0,13.0,11.0,2026,3,13,15,Friday,6.0,N/A,Summer
India,Assam,Nalbari,"Bata Chowk, Nalbari - Pcba",2026-03-13 15:00:00,26.446912,91.439057,Pm10,61.0,152.0,106.0,2026,3,13,15,Friday,91.0,N/A,Summer
India,Assam,Sivasagar,"Girls College, Sivasagar - Pcba",2026-03-13 15:00:00,26.987634,94.636574,Pm2.5,20.0,43.0,34.0,2026,3,13,15,Friday,23.0,N/A,Summer
India,Bihar,Aurangabad,"Gurdeo Nagar, Aurangabad - Bspcb",2026-03-13 15:00:00,24.75746,84.366208,Pm10,30.0,137.0,88.0,2026,3,13,15,Friday,107.0,N/A,Summer
India,Bihar,Araria,"Kharahiya Basti, Araria - Bspcb",2026-03-13 15:00:00,26.146529,87.454184,Co,28.0,61.0,49.0,2026,3,13,15,Friday,33.0,N/A,Summer
India,Bihar,Arrah,"New Dm Office, Arrah - Bspcb",2026-03-13 15:00:00,25.5626095,84.663264,No2,4.0,9.0,7.0,2026,3,13,15,Friday,5.0,N/A,Summer
India,Assam,Nalbari,"Bata Chowk, Nalbari - Pcba",2026-03-13 15:00:00,26.446912,91.439057,Co,14.0,40.0,19.0,2026,3,13,15,Friday,26.0,N/A,Summer
India,Assam,Nalbari,"Bata Chowk, Nalbari - Pcba",2026-03-13 15:00:00,26.446912,91.439057,No2,14.0,40.0,26.0,2026,3,13,15,Friday,26.0,N/A,Summer
India,Assam,Silchar,"Tarapur, Silchar - Pcba",2026-03-13 15:00:00,24.82827,92.79525,Pm10,37.0,60.0,52.0,2026,3,13,15,Friday,23.0,N/A,Summer
India,Bihar,Buxar,"Charitra Van, Buxar - Bspcb",2026-03-13 15:00:00,25.56752,83.966379,No2,9.0,10.0,9.0,2026,3,13,15,Friday,1.0,N/A,Summer
India,Bihar,Buxar,"Charitra Van, Buxar - Bspcb",2026-03-13 15:00:00,25.56752,83.966379,Co,19.0,28.0,24.0,2026,3,13,15,Friday,9.0,N/A,Summer
India,Bihar,Chhapra,"Darshan Nagar, Chhapra - Bspcb",2026-03-13 15:00:00,25.7808257,84.7446768,Co,8.0,16.0,12.0,2026,3,13,15,Friday,8.0,N/A,Summer
India,Bihar,Gaya,"Kareemganj, Gaya - Bspcb",2026-03-13 15:00:00,24.792403,84.992416,No2,11.0,13.0,12.0,2026,3,13,15,Friday,2.0,N/A,Summer
India,Bihar,Gaya,"Kareemganj, Gaya - Bspcb",2026-03-13 15:00:00,24.792403,84.992416,So2,40.5,40.5,40.5,2026,3,13,15,Friday,0.0,N/A,Summer
India,Bihar,Gaya,"Sfti Kusdihra, Gaya - Bspcb",2026-03-13 15:00:00,24.762518,84.982348,Nh3,3.0,5.0,4.0,2026,3,13,15,Friday,2.0,N/A,Summer
India,Bihar,Munger,"Town Hall, Munger - Bspcb",2026-03-13 15:00:00,25.376776,86.471523,Ozone,9.0,11.0,10.0,2026,3,13,15,Friday,2.0,N/A,Summer
India,Bihar,Muzaffarpur,"Mit-Daudpur Kothi, Muzaffarpur - Bspcb",2026-03-13 15:00:00,26.1403345,85.3650192,No2,2.0,9.0,6.0,2026,3,13,15,Friday,7.0,N/A,Summer
India,Bihar,Muzaffarpur,"Muzaffarpur Collectorate, Muzaffarpur - Bspcb",2026-03-13 15:00:00,26.1209,85.3647,Co,20.0,61.0,47.0,2026,3,13,15,Friday,41.0,N/A,Summer
India,Bihar,Patna,"Drm Office Danapur, Patna - Bspcb",2026-03-13 15:00:00,25.586562,85.043586,So2,4.0,9.0,6.0,2026,3,13,15,Friday,5.0,N/A,Summer
India,Bihar,Patna,"Drm Office Danapur, Patna - Bspcb",2026-03-13 15:00:00,25.586562,85.043586,Ozone,8.0,31.0,9.0,2026,3,13,15,Friday,23.0,N/A,Summer
India,Bihar,Patna,"Govt. High School Shikarpur, Patna - Bspcb",2026-03-13 15:00:00,25.592539,85.227158,Pm10,112.0,214.5,146.0,2026,3,13,15,Friday,102.5,N/A,Summer
India,Bihar,Patna,"Igsc Planetarium Complex, Patna - Bspcb",2026-03-13 15:00:00,25.610369,85.132568,No2,1.0,2.0,2.0,2026,3,13,15,Friday,1.0,N/A,Summer
India,Bihar,Patna,"Igsc Planetarium Complex, Patna - Bspcb",2026-03-13 15:00:00,25.610369,85.132568,Co,6.0,37.0,16.0,2026,3,13,15,Friday,31.0,N/A,Summer
India,Bihar,Patna,"Muradpur, Patna - Bspcb",2026-03-13 15:00:00,25.619651,85.147382,Pm10,128.0,143.0,135.0,2026,3,13,15,Friday,15.0,N/A,Summer
India,Bihar,Patna,"Muradpur, Patna - Bspcb",2026-03-13 15:00:00,25.619651,85.147382,Nh3,3.0,5.0,5.0,2026,3,13,15,Friday,2.0,N/A,Summer
India,Bihar,Patna,"Muradpur, Patna - Bspcb",2026-03-13 15:00:00,25.619651,85.147382,Ozone,16.0,102.0,61.0,2026,3,13,15,Friday,86.0,N/A,Summer
India,Bihar,Patna,"Rajbansi Nagar, Patna - Bspcb",2026-03-13 15:00:00,25.599486,85.113666,Nh3,4.0,4.0,4.0,2026,3,13,15,Friday,0.0,N/A,Summer
India,Bihar,Patna,"Rajbansi Nagar, Patna - Bspcb",2026-03-13 15:00:00,25.599486,85.113666,Co,19.0,61.0,44.0,2026,3,13,15,Friday,42.0,N/A,Summer
India,Bihar,Hajipur,"Industrial Area, Hajipur - Bspcb",2026-03-13 15:00:00,25.697189,85.2459,Nh3,14.0,15.5,15.5,2026,3,13,15,Friday,1.5,N/A,Summer
India,Bihar,Katihar,"Mirchaibari, Katihar - Bspcb",2026-03-13 15:00:00,25.560083,87.553265,Pm2.5,13.0,60.0,39.0,2026,3,13,15,Friday,47.0,N/A,Summer
India,Bihar,Kishanganj,"Sdm Office Khagra, Kishanganj - Bspcb",2026-03-13 15:00:00,26.0881305,87.93840336,Pm2.5,37.0,157.0,80.0,2026,3,13,15,Friday,120.0,N/A,Summer
India,Bihar,Kishanganj,"Sdm Office Khagra, Kishanganj - Bspcb",2026-03-13 15:00:00,26.0881305,87.93840336,So2,5.0,13.0,7.0,2026,3,13,15,Friday,8.0,N/A,Summer
India,Bihar,Kishanganj,"Sdm Office Khagra, Kishanganj - Bspcb",2026-03-13 15:00:00,26.0881305,87.93840336,Co,12.0,16.0,14.0,2026,3,13,15,Friday,4.0,N/A,Summer
India,Bihar,Bhagalpur,"Dm Office Kachari Chowk, Bhagalpur - Bspcb",2026-03-13 15:00:00,25.251013,86.989001,No2,4.0,15.0,10.0,2026,3,13,15,Friday,11.0,N/A,Summer
India,Bihar,Bhagalpur,"Dm Office Kachari Chowk, Bhagalpur - Bspcb",2026-03-13 15:00:00,25.251013,86.989001,So2,29.0,40.5,40.5,2026,3,13,15,Friday,11.5,N/A,Summer
India,Bihar,Bhagalpur,"Dm Office Kachari Chowk, Bhagalpur - Bspcb",2026-03-13 15:00:00,25.251013,86.989001,Co,10.0,28.0,18.0,2026,3,13,15,Friday,18.0,N/A,Summer
India,Bihar,Bhagalpur,"Mayaganj, Bhagalpur - Bspcb",2026-03-13 15:00:00,25.265194,87.012947,Pm2.5,12.0,68.0,36.0,2026,3,13,15,Friday,56.0,N/A,Summer
India,Bihar,Bhagalpur,"Mayaganj, Bhagalpur - Bspcb",2026-03-13 15:00:00,25.265194,87.012947,Ozone,6.0,25.0,10.0,2026,3,13,15,Friday,19.0,N/A,Summer
India,Bihar,Purnia,"Mariam Nagar, Purnia - Bspcb",2026-03-13 15:00:00,25.366336,87.117468,Co,36.0,60.0,48.0,2026,3,13,15,Friday,24.0,N/A,Summer
India,Bihar,Rajgir,"Dangi Tola, Rajgir - Bspcb",2026-03-13 15:00:00,25.0328,85.41948,So2,2.0,3.0,3.0,2026,3,13,15,Friday,1.0,N/A,Summer
India,Bihar,Rajgir,"Dangi Tola, Rajgir - Bspcb",2026-03-13 15:00:00,25.0328,85.41948,Ozone,24.0,28.0,26.0,2026,3,13,15,Friday,4.0,N/A,Summer
India,Bihar,Saharsa,"Police Line, Saharsa - Bspcb",2026-03-13 15:00:00,25.892357,86.590325,So2,14.0,19.0,17.0,2026,3,13,15,Friday,5.0,N/A,Summer
India,Bihar,Manguraha,"Forest Rest House, Manguraha - Bspcb",2026-03-13 15:00:00,27.308328,84.531742,Co,32.0,33.0,32.0,2026,3,13,15,Friday,1.0,N/A,Summer
India,Bihar,Motihari,"Gandak Colony, Motihari - Bspcb",2026-03-13 15:00:00,26.63086,84.90051,Pm2.5,38.0,143.0,81.0,2026,3,13,15,Friday,105.0,N/A,Summer
India,Bihar,Munger,"Town Hall, Munger - Bspcb",2026-03-13 15:00:00,25.376776,86.471523,Pm2.5,20.0,52.0,38.0,2026,3,13,15,Friday,32.0,N/A,Summer
India,Bihar,Aurangabad,"Gurdeo Nagar, Aurangabad - Bspcb",2026-03-13 15:00:00,24.75746,84.366208,No2,7.0,8.0,8.0,2026,3,13,15,Friday,1.0,N/A,Summer
India,Bihar,Begusarai,"Lohiyanagar, Begusarai - Bspcb",2026-03-13 15:00:00,25.42742023,86.13886079,No2,9.0,16.0,13.0,2026,3,13,15,Friday,7.0,N/A,Summer
India,Bihar,Begusarai,"Lohiyanagar, Begusarai - Bspcb",2026-03-13 15:00:00,25.42742023,86.13886079,Nh3,3.0,4.0,4.0,2026,3,13,15,Friday,1.0,N/A,Summer
India,Bihar,Samastipur,"Dm Office Kasipur, Samastipur - Bspcb",2026-03-13 15:00:00,25.859655,85.77944,Pm10,34.0,121.0,74.0,2026,3,13,15,Friday,87.0,N/A,Summer
India,Chandigarh,Chandigarh,"Sector-25, Chandigarh - Cpcc",2026-03-13 15:00:00,30.751462,76.762879,No2,14.0,40.0,26.0,2026,3,13,15,Friday,26.0,N/A,Summer
India,Chhattisgarh,Bhilai,"32Bungalows, Bhilai - Cecb",2026-03-13 15:00:00,21.194815,81.31477,No2,28.0,43.0,32.0,2026,3,13,15,Friday,15.0,N/A,Summer
India,Chhattisgarh,Bhilai,"32Bungalows, Bhilai - Cecb",2026-03-13 15:00:00,21.194815,81.31477,Nh3,1.0,2.0,1.0,2026,3,13,15,Friday,1.0,N/A,Summer
India,Chhattisgarh,Bhilai,"32Bungalows, Bhilai - Cecb",2026-03-13 15:00:00,21.194815,81.31477,So2,3.0,5.0,4.0,2026,3,13,15,Friday,2.0,N/A,Summer
India,Chhattisgarh,Bhilai,"Civic Center, Bhilai - Bhilai Steel Plant",2026-03-13 15:00:00,21.185571,81.343175,So2,7.0,9.0,8.0,2026,3,13,15,Friday,2.0,N/A,Summer
India,Chhattisgarh,Chhal,"Nawapara Secl Colony, Chhal - Cecb",2026-03-13 15:00:00,22.118125,83.140608,Pm10,56.0,214.5,125.0,2026,3,13,15,Friday,158.5,N/A,Summer
India,Chhattisgarh,Raipur,"Aiims, Raipur - Cecb",2026-03-13 15:00:00,21.258815,81.578979,Ozone,5.0,21.0,8.0,2026,3,13,15,Friday,16.0,N/A,Summer
India,Chhattisgarh,Raipur,"Bhatagaon New Isbt, Raipur - Cecb",2026-03-13 15:00:00,21.219665,81.630094,Pm10,24.0,108.0,69.0,2026,3,13,15,Friday,84.0,N/A,Summer
India,Chhattisgarh,Raipur,"Krishak Nagar, Raipur - Cecb",2026-03-13 15:00:00,21.237755,81.705301,Nh3,2.0,2.0,2.0,2026,3,13,15,Friday,0.0,N/A,Summer
India,Chhattisgarh,Raipur,"Siltara Phase-Ii, Raipur - Cecb",2026-03-13 15:00:00,21.371751,81.664929,Pm10,57.0,158.0,109.0,2026,3,13,15,Friday,101.0,N/A,Summer
India,Bihar,Siwan,"Chitragupta Nagar, Siwan - Bspcb",2026-03-13 15:00:00,26.2271665,84.3570427,Nh3,1.0,1.0,1.0,2026,3,13,15,Friday,0.0,N/A,Summer
India,Bihar,Siwan,"Chitragupta Nagar, Siwan - Bspcb",2026-03-13 15:00:00,26.2271665,84.3570427,Ozone,12.0,14.0,12.0,2026,3,13,15,Friday,2.0,N/A,Summer
India,Chandigarh,Chandigarh,"Sector 22, Chandigarh - Cpcc",2026-03-13 15:00:00,30.735567,76.775714,Ozone,6.0,114.0,61.0,2026,3,13,15,Friday,108.0,N/A,Summer
India,Bihar,Sasaram,"Dada Peer, Sasaram - Bspcb",2026-03-13 15:00:00,24.952822,84.002396,Pm10,42.0,122.0,78.0,2026,3,13,15,Friday,80.0,N/A,Summer
India,Bihar,Sasaram,"Dada Peer, Sasaram - Bspcb",2026-03-13 15:00:00,24.952822,84.002396,No2,2.0,6.0,2.0,2026,3,13,15,Friday,4.0,N/A,Summer
India,Bihar,Siwan,"Chitragupta Nagar, Siwan - Bspcb",2026-03-13 15:00:00,26.2271665,84.3570427,Pm10,71.0,118.0,97.0,2026,3,13,15,Friday,47.0,N/A,Summer
India,Delhi,Delhi,"Ashok Vihar, Delhi - Dpcc",2026-03-13 15:00:00,28.695381,77.181665,No2,13.0,85.0,43.0,2026,3,13,15,Friday,72.0,N/A,Summer
India,Delhi,Delhi,"Aya Nagar, Delhi - Imd",2026-03-13 15:00:00,28.4706914,77.1099364,Pm2.5,35.0,213.0,129.0,2026,3,13,15,Friday,178.0,N/A,Summer
India,Delhi,Delhi,"Aya Nagar, Delhi - Imd",2026-03-13 15:00:00,28.4706914,77.1099364,Pm10,82.0,214.5,168.0,2026,3,13,15,Friday,132.5,N/A,Summer
India,Delhi,Delhi,"Alipur, Delhi - Dpcc",2026-03-13 15:00:00,28.815329,77.15301,Pm2.5,42.0,213.0,162.0,2026,3,13,15,Friday,171.0,N/A,Summer
India,Chhattisgarh,Korba,"Rampur, Korba - Cecb",2026-03-13 15:00:00,22.368195,82.746431,Nh3,1.0,1.0,1.0,2026,3,13,15,Friday,0.0,N/A,Summer
India,Chhattisgarh,Korba,"Rampur, Korba - Cecb",2026-03-13 15:00:00,22.368195,82.746431,So2,6.0,40.5,40.5,2026,3,13,15,Friday,34.5,N/A,Summer
India,Chhattisgarh,Korba,"Urja Nagar, Korba - Cecb",2026-03-13 15:00:00,22.348441,82.549611,Pm10,58.0,214.5,160.0,2026,3,13,15,Friday,156.5,N/A,Summer
India,Chhattisgarh,Kunjemura,"Op Jindal School, Kunjemura - Cecb",2026-03-13 15:00:00,22.12665,83.483212,So2,17.0,40.5,40.5,2026,3,13,15,Friday,23.5,N/A,Summer
India,Chhattisgarh,Raipur,"Aiims, Raipur - Cecb",2026-03-13 15:00:00,21.258815,81.578979,So2,3.0,16.0,7.0,2026,3,13,15,Friday,13.0,N/A,Summer
India,Delhi,Delhi,"Cantonment Area, Delhi - Dpcc",2026-03-13 15:00:00,28.594169,77.1251,No2,17.0,85.0,55.0,2026,3,13,15,Friday,68.0,N/A,Summer
India,Delhi,Delhi,"Cantonment Area, Delhi - Dpcc",2026-03-13 15:00:00,28.594169,77.1251,Nh3,1.0,8.0,3.0,2026,3,13,15,Friday,7.0,N/A,Summer
India,Delhi,Delhi,"Cantonment Area, Delhi - Dpcc",2026-03-13 15:00:00,28.594169,77.1251,Ozone,1.0,50.0,28.0,2026,3,13,15,Friday,49.0,N/A,Summer
India,Delhi,Delhi,"Chandni Chowk, Delhi - Iitm",2026-03-13 15:00:00,28.656756,77.227234,Pm10,174.0,214.5,214.5,2026,3,13,15,Friday,40.5,N/A,Summer
India,Delhi,Delhi,"Commonwealth Sports Complex, Delhi - Dpcc",2026-03-13 15:00:00,28.615828,77.271992,Nh3,8.0,15.5,15.5,2026,3,13,15,Friday,7.5,N/A,Summer
India,Delhi,Delhi,"Dr. Karni Singh Shooting Range, Delhi - Dpcc",2026-03-13 15:00:00,28.498571,77.26484,Pm2.5,23.0,213.0,157.0,2026,3,13,15,Friday,190.0,N/A,Summer
India,Delhi,Delhi,"Dwarka-Sector 8, Delhi - Dpcc",2026-03-13 15:00:00,28.5710274,77.0719006,So2,20.0,40.5,28.0,2026,3,13,15,Friday,20.5,N/A,Summer
India,Delhi,Delhi,"Dwarka-Sector 8, Delhi - Dpcc",2026-03-13 15:00:00,28.5710274,77.0719006,Co,4.0,61.0,32.0,2026,3,13,15,Friday,57.0,N/A,Summer
India,Delhi,Delhi,"Bawana, Delhi - Dpcc",2026-03-13 15:00:00,28.7762,77.051074,Pm2.5,55.0,213.0,213.0,2026,3,13,15,Friday,158.0,N/A,Summer
India,Delhi,Delhi,"Bawana, Delhi - Dpcc",2026-03-13 15:00:00,28.7762,77.051074,Nh3,6.0,15.5,8.0,2026,3,13,15,Friday,9.5,N/A,Summer
India,Delhi,Delhi,"Burari Crossing, Delhi - Imd",2026-03-13 15:00:00,28.7256504,77.2011573,Pm10,102.0,214.5,149.0,2026,3,13,15,Friday,112.5,N/A,Summer
India,Delhi,Delhi,"Crri Mathura Road, Delhi - Imd",2026-03-13 15:00:00,28.5512005,77.2735737,Pm2.5,35.0,213.0,143.0,2026,3,13,15,Friday,178.0,N/A,Summer
India,Delhi,Delhi,"Crri Mathura Road, Delhi - Imd",2026-03-13 15:00:00,28.5512005,77.2735737,No2,62.0,85.0,85.0,2026,3,13,15,Friday,23.0,N/A,Summer
India,Delhi,Delhi,"Crri Mathura Road, Delhi - Imd",2026-03-13 15:00:00,28.5512005,77.2735737,Co,25.0,61.0,47.0,2026,3,13,15,Friday,36.0,N/A,Summer
India,Delhi,Delhi,"Cantonment Area, Delhi - Dpcc",2026-03-13 15:00:00,28.594169,77.1251,Pm10,88.0,214.5,171.0,2026,3,13,15,Friday,126.5,N/A,Summer
India,Delhi,Delhi,"Ignou Maidan Garhi, Delhi - Dpcc",2026-03-13 15:00:00,28.493624,77.201159,Pm2.5,33.0,213.0,185.0,2026,3,13,15,Friday,180.0,N/A,Summer
India,Delhi,Delhi,"Ignou Maidan Garhi, Delhi - Dpcc",2026-03-13 15:00:00,28.493624,77.201159,So2,40.5,40.5,40.5,2026,3,13,15,Friday,0.0,N/A,Summer
India,Delhi,Delhi,"Ihbas, Dilshad Garden, Delhi - Cpcb",2026-03-13 15:00:00,28.6811736,77.3025234,So2,4.0,30.0,13.0,2026,3,13,15,Friday,26.0,N/A,Summer
India,Delhi,Delhi,"Ihbas, Dilshad Garden, Delhi - Cpcb",2026-03-13 15:00:00,28.6811736,77.3025234,Ozone,12.0,39.0,14.0,2026,3,13,15,Friday,27.0,N/A,Summer
India,Delhi,Delhi,"Ito, Delhi - Cpcb",2026-03-13 15:00:00,28.628624,77.24106,Nh3,4.0,7.0,5.0,2026,3,13,15,Friday,3.0,N/A,Summer
India,Delhi,Delhi,"Ito, Delhi - Cpcb",2026-03-13 15:00:00,28.628624,77.24106,So2,7.0,21.0,13.0,2026,3,13,15,Friday,14.0,N/A,Summer
India,Delhi,Delhi,"Jawaharlal Nehru Stadium, Delhi - Dpcc",2026-03-13 15:00:00,28.58028,77.233829,Ozone,2.0,114.0,77.0,2026,3,13,15,Friday,112.0,N/A,Summer
India,Delhi,Delhi,"Major Dhyan Chand National Stadium, Delhi - Dpcc",2026-03-13 15:00:00,28.611281,77.237738,Nh3,14.0,15.5,15.5,2026,3,13,15,Friday,1.5,N/A,Summer
India,Delhi,Delhi,"Mandir Marg, Delhi - Dpcc",2026-03-13 15:00:00,28.636429,77.201067,Pm10,88.0,194.0,140.0,2026,3,13,15,Friday,106.0,N/A,Summer
India,Delhi,Delhi,"Mandir Marg, Delhi - Dpcc",2026-03-13 15:00:00,28.636429,77.201067,Nh3,7.0,9.0,8.0,2026,3,13,15,Friday,2.0,N/A,Summer
India,Delhi,Delhi,"Mandir Marg, Delhi - Dpcc",2026-03-13 15:00:00,28.636429,77.201067,So2,22.0,40.5,35.0,2026,3,13,15,Friday,18.5,N/A,Summer
India,Delhi,Delhi,"Najafgarh, Delhi - Dpcc",2026-03-13 15:00:00,28.570173,76.933762,No2,18.0,85.0,73.0,2026,3,13,15,Friday,67.0,N/A,Summer
India,Delhi,Delhi,"Najafgarh, Delhi - Dpcc",2026-03-13 15:00:00,28.570173,76.933762,Nh3,11.0,15.5,12.0,2026,3,13,15,Friday,4.5,N/A,Summer
India,Delhi,Delhi,"Najafgarh, Delhi - Dpcc",2026-03-13 15:00:00,28.570173,76.933762,Ozone,4.0,100.0,55.0,2026,3,13,15,Friday,96.0,N/A,Summer
India,Delhi,Delhi,"Narela, Delhi - Dpcc",2026-03-13 15:00:00,28.822836,77.101981,Pm2.5,40.0,213.0,185.0,2026,3,13,15,Friday,173.0,N/A,Summer
India,Delhi,Delhi,"Nehru Nagar, Delhi - Dpcc",2026-03-13 15:00:00,28.56789,77.250515,Pm2.5,37.0,213.0,173.0,2026,3,13,15,Friday,176.0,N/A,Summer
India,Delhi,Delhi,"Nehru Nagar, Delhi - Dpcc",2026-03-13 15:00:00,28.56789,77.250515,Ozone,1.0,102.0,62.0,2026,3,13,15,Friday,101.0,N/A,Summer
India,Delhi,Delhi,"New Moti Bagh, Delhi - Mhua",2026-03-13 15:00:00,28.57834,77.184,Co,14.0,61.0,31.0,2026,3,13,15,Friday,47.0,N/A,Summer
India,Delhi,Delhi,"Mandir Marg, Delhi - Dpcc",2026-03-13 15:00:00,28.636429,77.201067,Co,22.0,61.0,36.0,2026,3,13,15,Friday,39.0,N/A,Summer
India,Delhi,Delhi,"Mundka, Delhi - Dpcc",2026-03-13 15:00:00,28.684678,77.076574,Pm2.5,48.0,213.0,213.0,2026,3,13,15,Friday,165.0,N/A,Summer
India,Delhi,Delhi,"Jawaharlal Nehru Stadium, Delhi - Dpcc",2026-03-13 15:00:00,28.58028,77.233829,Pm2.5,33.0,213.0,171.0,2026,3,13,15,Friday,180.0,N/A,Summer
India,Delhi,Delhi,"Mundka, Delhi - Dpcc",2026-03-13 15:00:00,28.684678,77.076574,Nh3,5.0,14.0,9.0,2026,3,13,15,Friday,9.0,N/A,Summer
India,Gujarat,Ahmedabad,"Chandkheda, Ahmedabad - Iitm",2026-03-13 15:00:00,23.107969,72.574648,So2,3.0,40.5,26.0,2026,3,13,15,Friday,37.5,N/A,Summer
India,Gujarat,Ahmedabad,"Chandkheda, Ahmedabad - Iitm",2026-03-13 15:00:00,23.107969,72.574648,Ozone,1.0,94.0,56.0,2026,3,13,15,Friday,93.0,N/A,Summer
India,Gujarat,Ahmedabad,"Gyaspur, Ahmedabad - Iitm",2026-03-13 15:00:00,22.977134,72.553024,Nh3,2.0,15.5,15.5,2026,3,13,15,Friday,13.5,N/A,Summer
India,Gujarat,Ahmedabad,"Gyaspur, Ahmedabad - Iitm",2026-03-13 15:00:00,22.977134,72.553024,Ozone,1.0,76.0,14.0,2026,3,13,15,Friday,75.0,N/A,Summer
India,Gujarat,Ahmedabad,"Raikhad, Ahmedabad - Iitm",2026-03-13 15:00:00,23.020509,72.579261,So2,12.0,40.5,28.0,2026,3,13,15,Friday,28.5,N/A,Summer
India,Gujarat,Ahmedabad,"Sac Isro Bopal, Ahmedabad - Iitm",2026-03-13 15:00:00,23.041137,72.456691,Ozone,2.0,72.0,42.0,2026,3,13,15,Friday,70.0,N/A,Summer
India,Gujarat,Ahmedabad,"Sac Isro Satellite, Ahmedabad - Iitm",2026-03-13 15:00:00,23.023389,72.515201,Pm2.5,61.0,213.0,200.0,2026,3,13,15,Friday,152.0,N/A,Summer
India,Delhi,Delhi,"Rohini, Delhi - Dpcc",2026-03-13 15:00:00,28.732528,77.11992,Co,7.0,61.0,21.0,2026,3,13,15,Friday,54.0,N/A,Summer
India,Delhi,Delhi,"Shadipur, Delhi - Cpcb",2026-03-13 15:00:00,28.6514781,77.1473105,Pm10,112.0,189.0,150.0,2026,3,13,15,Friday,77.0,N/A,Summer
India,Delhi,Delhi,"Sonia Vihar, Delhi - Dpcc",2026-03-13 15:00:00,28.710508,77.249485,No2,11.0,52.0,29.0,2026,3,13,15,Friday,41.0,N/A,Summer
India,Delhi,Delhi,"Sonia Vihar, Delhi - Dpcc",2026-03-13 15:00:00,28.710508,77.249485,Co,2.0,61.0,32.0,2026,3,13,15,Friday,59.0,N/A,Summer
India,Delhi,Delhi,"Sri Aurobindo Marg, Delhi - Dpcc",2026-03-13 15:00:00,28.531346,77.190156,So2,1.0,8.0,4.0,2026,3,13,15,Friday,7.0,N/A,Summer
India,Delhi,Delhi,"Talkatora Garden, Delhi - Dpcc",2026-03-13 15:00:00,28.62181,77.1944633,Pm10,61.0,152.0,106.0,2026,3,13,15,Friday,91.0,N/A,Summer
India,Delhi,Delhi,"Talkatora Garden, Delhi - Dpcc",2026-03-13 15:00:00,28.62181,77.1944633,No2,14.0,40.0,26.0,2026,3,13,15,Friday,26.0,N/A,Summer
India,Delhi,Delhi,"Patparganj, Delhi - Dpcc",2026-03-13 15:00:00,28.623763,77.287209,No2,20.0,85.0,63.0,2026,3,13,15,Friday,65.0,N/A,Summer
India,Delhi,Delhi,"Patparganj, Delhi - Dpcc",2026-03-13 15:00:00,28.623763,77.287209,So2,15.0,40.5,23.0,2026,3,13,15,Friday,25.5,N/A,Summer
India,Delhi,Delhi,"Punjabi Bagh, Delhi - Dpcc",2026-03-13 15:00:00,28.674045,77.131023,Pm2.5,55.0,213.0,176.0,2026,3,13,15,Friday,158.0,N/A,Summer
India,Delhi,Delhi,"Punjabi Bagh, Delhi - Dpcc",2026-03-13 15:00:00,28.674045,77.131023,Pm10,109.0,214.5,161.0,2026,3,13,15,Friday,105.5,N/A,Summer
India,Delhi,Delhi,"Punjabi Bagh, Delhi - Dpcc",2026-03-13 15:00:00,28.674045,77.131023,No2,15.0,81.0,40.0,2026,3,13,15,Friday,66.0,N/A,Summer
India,Delhi,Delhi,"Punjabi Bagh, Delhi - Dpcc",2026-03-13 15:00:00,28.674045,77.131023,Nh3,5.0,8.0,7.0,2026,3,13,15,Friday,3.0,N/A,Summer
India,Delhi,Delhi,"Punjabi Bagh, Delhi - Dpcc",2026-03-13 15:00:00,28.674045,77.131023,So2,32.0,40.5,40.5,2026,3,13,15,Friday,8.5,N/A,Summer
India,Delhi,Delhi,"Vivek Vihar, Delhi - Dpcc",2026-03-13 15:00:00,28.672342,77.31526,So2,10.0,40.0,16.0,2026,3,13,15,Friday,30.0,N/A,Summer
India,Delhi,Delhi,"Wazirpur, Delhi - Dpcc",2026-03-13 15:00:00,28.699793,77.165453,Pm10,148.0,214.5,214.5,2026,3,13,15,Friday,66.5,N/A,Summer
India,Delhi,Delhi,"Okhla Phase-2, Delhi - Dpcc",2026-03-13 15:00:00,28.530785,77.271255,No2,29.0,85.0,82.0,2026,3,13,15,Friday,56.0,N/A,Summer
India,Delhi,Delhi,"Okhla Phase-2, Delhi - Dpcc",2026-03-13 15:00:00,28.530785,77.271255,Nh3,12.0,15.5,14.0,2026,3,13,15,Friday,3.5,N/A,Summer
India,Delhi,Delhi,"Pusa, Delhi - Imd",2026-03-13 15:00:00,28.63611,77.173332,Pm2.5,34.0,212.0,102.0,2026,3,13,15,Friday,178.0,N/A,Summer
India,Delhi,Delhi,"Pusa, Delhi - Imd",2026-03-13 15:00:00,28.63611,77.173332,Ozone,6.0,114.0,114.0,2026,3,13,15,Friday,108.0,N/A,Summer
India,Delhi,Delhi,"North Campus, Du, Delhi - Imd",2026-03-13 15:00:00,28.6573814,77.1585447,No2,27.0,85.0,85.0,2026,3,13,15,Friday,58.0,N/A,Summer
India,Delhi,Delhi,"Okhla Phase-2, Delhi - Dpcc",2026-03-13 15:00:00,28.530785,77.271255,Ozone,1.0,114.0,64.0,2026,3,13,15,Friday,113.0,N/A,Summer
India,Delhi,Delhi,"Wazirpur, Delhi - Dpcc",2026-03-13 15:00:00,28.699793,77.165453,So2,5.0,22.0,13.0,2026,3,13,15,Friday,17.0,N/A,Summer
India,Haryana,Faridabad,"New Industrial Town, Faridabad - Hspcb",2026-03-13 15:00:00,28.39072,77.30059,No2,24.0,27.0,25.0,2026,3,13,15,Friday,3.0,N/A,Summer
India,Haryana,Faridabad,"New Industrial Town, Faridabad - Hspcb",2026-03-13 15:00:00,28.39072,77.30059,Nh3,10.0,12.0,11.0,2026,3,13,15,Friday,2.0,N/A,Summer
India,Haryana,Faridabad,"New Industrial Town, Faridabad - Hspcb",2026-03-13 15:00:00,28.39072,77.30059,So2,8.0,8.0,8.0,2026,3,13,15,Friday,0.0,N/A,Summer
India,Haryana,Faridabad,"New Industrial Town, Faridabad - Hspcb",2026-03-13 15:00:00,28.39072,77.30059,Co,10.0,13.0,12.0,2026,3,13,15,Friday,3.0,N/A,Summer
India,Haryana,Faridabad,"Sector 11, Faridabad - Hspcb",2026-03-13 15:00:00,28.376058,77.315741,Pm2.5,35.0,213.0,213.0,2026,3,13,15,Friday,178.0,N/A,Summer
India,Haryana,Faridabad,"Sector 11, Faridabad - Hspcb",2026-03-13 15:00:00,28.376058,77.315741,Nh3,10.0,10.0,10.0,2026,3,13,15,Friday,0.0,N/A,Summer
India,Haryana,Faridabad,"Sector 30, Faridabad - Hspcb",2026-03-13 15:00:00,28.4417,77.3217,Pm2.5,103.0,103.0,103.0,2026,3,13,15,Friday,0.0,N/A,Summer
India,Haryana,Faridabad,"Sector 30, Faridabad - Hspcb",2026-03-13 15:00:00,28.4417,77.3217,Ozone,6.0,36.0,21.0,2026,3,13,15,Friday,30.0,N/A,Summer
India,Haryana,Fatehabad,"Huda Sector, Fatehabad - Hspcb",2026-03-13 15:00:00,29.503664,75.467934,Nh3,13.0,15.0,14.0,2026,3,13,15,Friday,2.0,N/A,Summer
India,Haryana,Fatehabad,"Huda Sector, Fatehabad - Hspcb",2026-03-13 15:00:00,29.503664,75.467934,Co,25.0,36.0,30.0,2026,3,13,15,Friday,11.0,N/A,Summer
India,Haryana,Fatehabad,"Huda Sector, Fatehabad - Hspcb",2026-03-13 15:00:00,29.503664,75.467934,Ozone,71.0,100.0,84.0,2026,3,13,15,Friday,29.0,N/A,Summer
India,Haryana,Gurugram,"Nise Gwal Pahari, Gurugram - Imd",2026-03-13 15:00:00,28.422681,77.148944,Pm2.5,43.0,213.0,155.0,2026,3,13,15,Friday,170.0,N/A,Summer
India,Haryana,Gurugram,"Nise Gwal Pahari, Gurugram - Imd",2026-03-13 15:00:00,28.422681,77.148944,Co,7.0,61.0,25.0,2026,3,13,15,Friday,54.0,N/A,Summer
India,Haryana,Gurugram,"Sector-51, Gurugram - Hspcb",2026-03-13 15:00:00,28.4227,77.0667,Pm10,88.0,214.5,214.5,2026,3,13,15,Friday,126.5,N/A,Summer
India,Haryana,Gurugram,"Sector-51, Gurugram - Hspcb",2026-03-13 15:00:00,28.4227,77.0667,No2,4.0,10.0,6.0,2026,3,13,15,Friday,6.0,N/A,Summer
India,Haryana,Gurugram,"Sector-51, Gurugram - Hspcb",2026-03-13 15:00:00,28.4227,77.0667,Nh3,6.0,10.0,8.0,2026,3,13,15,Friday,4.0,N/A,Summer
India,Haryana,Gurugram,"Sector-51, Gurugram - Hspcb",2026-03-13 15:00:00,28.4227,77.0667,Ozone,10.0,46.0,38.0,2026,3,13,15,Friday,36.0,N/A,Summer
India,Haryana,Gurugram,"Teri Gram, Gurugram - Hspcb",2026-03-13 15:00:00,28.4275,77.1465,Pm10,96.0,214.5,135.0,2026,3,13,15,Friday,118.5,N/A,Summer
India,Haryana,Ambala,"Patti Mehar, Ambala - Hspcb",2026-03-13 15:00:00,30.379589,76.778328,So2,12.0,12.0,12.0,2026,3,13,15,Friday,0.0,N/A,Summer
India,Haryana,Ballabgarh,"Nathu Colony, Ballabgarh - Hspcb",2026-03-13 15:00:00,28.3419248,77.319699,Pm2.5,55.0,213.0,159.0,2026,3,13,15,Friday,158.0,N/A,Summer
India,Haryana,Bhiwani,"H.B. Colony, Bhiwani - Hspcb",2026-03-13 15:00:00,28.806223,76.141105,Pm10,36.0,214.5,95.0,2026,3,13,15,Friday,178.5,N/A,Summer
India,Haryana,Bhiwani,"H.B. Colony, Bhiwani - Hspcb",2026-03-13 15:00:00,28.806223,76.141105,No2,7.0,10.0,8.0,2026,3,13,15,Friday,3.0,N/A,Summer
India,Haryana,Bhiwani,"H.B. Colony, Bhiwani - Hspcb",2026-03-13 15:00:00,28.806223,76.141105,Co,15.0,21.0,18.0,2026,3,13,15,Friday,6.0,N/A,Summer
India,Haryana,Charkhi Dadri,"Mini Secretariat, Charkhi Dadri - Hspcb",2026-03-13 15:00:00,28.593883,76.270653,No2,9.0,20.0,15.0,2026,3,13,15,Friday,11.0,N/A,Summer
India,Haryana,Dharuhera,"Municipal Corporation Office, Dharuhera -  Hspcb",2026-03-13 15:00:00,28.2068,76.7997,Pm2.5,32.0,213.0,162.0,2026,3,13,15,Friday,181.0,N/A,Summer
India,Haryana,Dharuhera,"Municipal Corporation Office, Dharuhera -  Hspcb",2026-03-13 15:00:00,28.2068,76.7997,No2,16.0,57.0,41.0,2026,3,13,15,Friday,41.0,N/A,Summer
India,Haryana,Dharuhera,"Municipal Corporation Office, Dharuhera -  Hspcb",2026-03-13 15:00:00,28.2068,76.7997,Nh3,10.0,15.5,15.5,2026,3,13,15,Friday,5.5,N/A,Summer
India,Haryana,Dharuhera,"Municipal Corporation Office, Dharuhera -  Hspcb",2026-03-13 15:00:00,28.2068,76.7997,Co,8.0,35.0,21.0,2026,3,13,15,Friday,27.0,N/A,Summer
India,Haryana,Dharuhera,"Municipal Corporation Office, Dharuhera -  Hspcb",2026-03-13 15:00:00,28.2068,76.7997,Ozone,11.0,22.0,15.0,2026,3,13,15,Friday,11.0,N/A,Summer
India,Gujarat,Ahmedabad,"Sac Isro Satellite, Ahmedabad - Iitm",2026-03-13 15:00:00,23.023389,72.515201,Pm10,83.0,214.5,156.0,2026,3,13,15,Friday,131.5,N/A,Summer
India,Gujarat,Ahmedabad,"Svpi Airport Hansol, Ahmedabad - Iitm",2026-03-13 15:00:00,23.076793,72.627874,Pm10,97.0,214.5,183.0,2026,3,13,15,Friday,117.5,N/A,Summer
India,Gujarat,Ahmedabad,"Svpi Airport Hansol, Ahmedabad - Iitm",2026-03-13 15:00:00,23.076793,72.627874,Co,12.0,61.0,44.0,2026,3,13,15,Friday,49.0,N/A,Summer
India,Gujarat,Bhavnagar,"Vidhyanagar, Bhavnagar - Nexteng Enviro",2026-03-13 15:00:00,21.755417,72.139056,Ozone,7.0,23.0,15.0,2026,3,13,15,Friday,16.0,N/A,Summer
India,Gujarat,Gandhinagar,"Iiphg Lekawada, Gandhinagar - Iitm",2026-03-13 15:00:00,23.243639,72.68994,So2,4.0,40.5,9.0,2026,3,13,15,Friday,36.5,N/A,Summer
India,Gujarat,Gandhinagar,"Sector-10, Gandhinagar - Gpcb",2026-03-13 15:00:00,23.221714,72.654328,Pm2.5,63.0,213.0,141.0,2026,3,13,15,Friday,150.0,N/A,Summer
India,Gujarat,Gandhinagar,"Sector-10, Gandhinagar - Gpcb",2026-03-13 15:00:00,23.221714,72.654328,Pm10,87.0,179.0,136.0,2026,3,13,15,Friday,92.0,N/A,Summer
India,Gujarat,Gandhinagar,"Sector-10, Gandhinagar - Gpcb",2026-03-13 15:00:00,23.221714,72.654328,So2,8.0,40.5,13.0,2026,3,13,15,Friday,32.5,N/A,Summer
India,Gujarat,Gandhinagar,"Sector-10, Gandhinagar - Gpcb",2026-03-13 15:00:00,23.221714,72.654328,Co,32.0,48.0,36.0,2026,3,13,15,Friday,16.0,N/A,Summer
India,Gujarat,Mehsana,"Sadanand Nagar, Mehsana - Nexteng Enviro",2026-03-13 15:00:00,23.59315,72.372792,Nh3,4.0,11.0,7.0,2026,3,13,15,Friday,7.0,N/A,Summer
India,Gujarat,Mehsana,"Sadanand Nagar, Mehsana - Nexteng Enviro",2026-03-13 15:00:00,23.59315,72.372792,So2,4.0,14.0,9.0,2026,3,13,15,Friday,10.0,N/A,Summer
India,Gujarat,Mehsana,"Sadanand Nagar, Mehsana - Nexteng Enviro",2026-03-13 15:00:00,23.59315,72.372792,Ozone,8.0,13.0,11.0,2026,3,13,15,Friday,5.0,N/A,Summer
India,Gujarat,Nandesari,"Gidc, Nandesari - Nandesari Ind. Association",2026-03-13 15:00:00,22.410802,73.097923,Pm2.5,92.0,213.0,200.0,2026,3,13,15,Friday,121.0,N/A,Summer
India,Gujarat,Rajkot,"Mavdi, Rajkot - Nexteng Enviro",2026-03-13 15:00:00,22.248853,70.776774,Pm2.5,22.0,198.0,86.0,2026,3,13,15,Friday,176.0,N/A,Summer
India,Gujarat,Rajkot,"Mavdi, Rajkot - Nexteng Enviro",2026-03-13 15:00:00,22.248853,70.776774,Co,38.0,42.0,40.0,2026,3,13,15,Friday,4.0,N/A,Summer
India,Gujarat,Surat,"Katargam, Surat - Nexteng Enviro",2026-03-13 15:00:00,21.217779,72.834787,Pm10,43.0,128.0,88.0,2026,3,13,15,Friday,85.0,N/A,Summer
India,Gujarat,Surat,"Katargam, Surat - Nexteng Enviro",2026-03-13 15:00:00,21.217779,72.834787,Ozone,8.0,9.0,9.0,2026,3,13,15,Friday,1.0,N/A,Summer
India,Haryana,Mandikhera,"General Hospital, Mandikhera(Nuh) - Hspcb",2026-03-13 15:00:00,27.9002,76.9938,No2,19.0,23.0,21.0,2026,3,13,15,Friday,4.0,N/A,Summer
India,Haryana,Manesar,"Sector-2 Imt, Manesar - Hspcb",2026-03-13 15:00:00,28.360699,76.93609,Pm2.5,118.0,213.0,194.0,2026,3,13,15,Friday,95.0,N/A,Summer
India,Haryana,Manesar,"Sector-2 Imt, Manesar - Hspcb",2026-03-13 15:00:00,28.360699,76.93609,Pm10,100.0,214.5,127.0,2026,3,13,15,Friday,114.5,N/A,Summer
India,Haryana,Manesar,"Sector-2 Imt, Manesar - Hspcb",2026-03-13 15:00:00,28.360699,76.93609,Nh3,6.0,11.0,9.0,2026,3,13,15,Friday,5.0,N/A,Summer
India,Haryana,Narnaul,"Shastri Nagar, Narnaul - Hspcb",2026-03-13 15:00:00,28.060249,76.113115,No2,36.0,60.0,51.0,2026,3,13,15,Friday,24.0,N/A,Summer
India,Haryana,Jind,"Police Lines, Jind - Hspcb",2026-03-13 15:00:00,29.307814,76.337619,Pm10,61.0,122.0,94.0,2026,3,13,15,Friday,61.0,N/A,Summer
India,Haryana,Kaithal,"Rishi Nagar, Kaithal - Hspcb",2026-03-13 15:00:00,29.8006,76.4155,Pm2.5,68.0,185.0,118.0,2026,3,13,15,Friday,117.0,N/A,Summer
India,Haryana,Karnal,"Sector-12, Karnal - Hspcb",2026-03-13 15:00:00,29.6953,77.0027,No2,6.0,7.0,6.0,2026,3,13,15,Friday,1.0,N/A,Summer
India,Haryana,Gurugram,"Teri Gram, Gurugram - Hspcb",2026-03-13 15:00:00,28.4275,77.1465,Co,10.0,51.0,29.0,2026,3,13,15,Friday,41.0,N/A,Summer
India,Haryana,Hisar,"Urban Estate-Ii, Hisar - Hspcb",2026-03-13 15:00:00,29.14056,75.744941,Pm10,76.0,133.0,108.0,2026,3,13,15,Friday,57.0,N/A,Summer
India,Haryana,Hisar,"Urban Estate-Ii, Hisar - Hspcb",2026-03-13 15:00:00,29.14056,75.744941,Nh3,10.0,11.0,11.0,2026,3,13,15,Friday,1.0,N/A,Summer
India,Gujarat,Vatva,"Phase-4 Gidc, Vatva - Gpcb",2026-03-13 15:00:00,22.969611,72.6435,Pm2.5,63.0,213.0,130.0,2026,3,13,15,Friday,150.0,N/A,Summer
India,Haryana,Ambala,"Patti Mehar, Ambala - Hspcb",2026-03-13 15:00:00,30.379589,76.778328,Pm10,71.0,114.0,95.0,2026,3,13,15,Friday,43.0,N/A,Summer
India,Haryana,Ambala,"Patti Mehar, Ambala - Hspcb",2026-03-13 15:00:00,30.379589,76.778328,No2,7.0,12.0,10.0,2026,3,13,15,Friday,5.0,N/A,Summer
India,Haryana,Kurukshetra,"Sector-7, Kurukshetra - Hspcb",2026-03-13 15:00:00,29.966942,76.875879,No2,4.0,4.0,4.0,2026,3,13,15,Friday,0.0,N/A,Summer
India,Haryana,Kurukshetra,"Sector-7, Kurukshetra - Hspcb",2026-03-13 15:00:00,29.966942,76.875879,So2,1.0,17.0,8.0,2026,3,13,15,Friday,16.0,N/A,Summer
India,Haryana,Narnaul,"Shastri Nagar, Narnaul - Hspcb",2026-03-13 15:00:00,28.060249,76.113115,So2,6.0,7.0,7.0,2026,3,13,15,Friday,1.0,N/A,Summer
India,Haryana,Palwal,"Shyam Nagar, Palwal - Hspcb",2026-03-13 15:00:00,28.1485564,77.3320667,Pm2.5,33.0,45.0,37.0,2026,3,13,15,Friday,12.0,N/A,Summer
India,Haryana,Palwal,"Shyam Nagar, Palwal - Hspcb",2026-03-13 15:00:00,28.1485564,77.3320667,Pm10,34.0,50.0,39.0,2026,3,13,15,Friday,16.0,N/A,Summer
India,Haryana,Palwal,"Shyam Nagar, Palwal - Hspcb",2026-03-13 15:00:00,28.1485564,77.3320667,No2,23.0,24.0,24.0,2026,3,13,15,Friday,1.0,N/A,Summer
India,Haryana,Palwal,"Shyam Nagar, Palwal - Hspcb",2026-03-13 15:00:00,28.1485564,77.3320667,So2,7.0,21.0,13.0,2026,3,13,15,Friday,14.0,N/A,Summer
India,Haryana,Panchgaon,"Amity University, Panchgaon - Iitm",2026-03-13 15:00:00,28.3153,76.9143,Co,10.0,60.0,34.0,2026,3,13,15,Friday,50.0,N/A,Summer
India,Haryana,Panchkula,"Sector-6, Panchkula - Hspcb",2026-03-13 15:00:00,30.7057778,76.85318056,No2,23.0,25.0,24.0,2026,3,13,15,Friday,2.0,N/A,Summer
India,Haryana,Panipat,"Sector-18, Panipat - Hspcb",2026-03-13 15:00:00,29.432304,76.972765,Pm2.5,39.0,90.0,63.0,2026,3,13,15,Friday,51.0,N/A,Summer
India,Haryana,Panipat,"Sector-18, Panipat - Hspcb",2026-03-13 15:00:00,29.432304,76.972765,Ozone,30.0,30.0,30.0,2026,3,13,15,Friday,0.0,N/A,Summer
India,Haryana,Rohtak,"Md University, Rohtak - Hspcb",2026-03-13 15:00:00,28.52123,76.37138,No2,10.0,12.0,11.0,2026,3,13,15,Friday,2.0,N/A,Summer
India,Haryana,Sirsa,"F-Block, Sirsa - Hspcb",2026-03-13 15:00:00,29.5364,75.0158,Ozone,40.0,114.0,66.0,2026,3,13,15,Friday,74.0,N/A,Summer
India,Haryana,Sonipat,"Murthal, Sonipat - Hspcb",2026-03-13 15:00:00,29.0272,77.0621,Nh3,11.0,11.0,11.0,2026,3,13,15,Friday,0.0,N/A,Summer
India,Haryana,Yamuna Nagar,"Gobind Pura, Yamuna Nagar - Hspcb",2026-03-13 15:00:00,30.1480566,77.2893471,Pm10,112.0,162.0,134.0,2026,3,13,15,Friday,50.0,N/A,Summer
India,Haryana,Yamuna Nagar,"Gobind Pura, Yamuna Nagar - Hspcb",2026-03-13 15:00:00,30.1480566,77.2893471,So2,9.0,15.0,11.0,2026,3,13,15,Friday,6.0,N/A,Summer
India,Himachal Pradesh,Baddi,"Himuda Complex Phase-1, Baddi - Hppcb",2026-03-13 15:00:00,30.943887,76.801991,Nh3,4.0,7.0,5.0,2026,3,13,15,Friday,3.0,N/A,Summer
India,Himachal Pradesh,Baddi,"Himuda Complex Phase-1, Baddi - Hppcb",2026-03-13 15:00:00,30.943887,76.801991,So2,23.0,40.5,40.5,2026,3,13,15,Friday,17.5,N/A,Summer
India,Jharkhand,Dhanbad,"Sardar Patel Nagar, Dhanbad - Jspcb",2026-03-13 15:00:00,23.80569,86.44268,Pm2.5,4.0,213.0,162.0,2026,3,13,15,Friday,209.0,N/A,Summer
India,Jharkhand,Dhanbad,"Sardar Patel Nagar, Dhanbad - Jspcb",2026-03-13 15:00:00,23.80569,86.44268,No2,79.0,85.0,83.0,2026,3,13,15,Friday,6.0,N/A,Summer
India,Karnataka,Bengaluru,"City Railway Station, Bengaluru - Kspcb",2026-03-13 15:00:00,12.9756843,77.5660749,No2,44.0,51.0,48.0,2026,3,13,15,Friday,7.0,N/A,Summer
India,Karnataka,Bengaluru,"Hebbal, Bengaluru - Kspcb",2026-03-13 15:00:00,13.029152,77.585901,No2,51.0,85.0,81.0,2026,3,13,15,Friday,34.0,N/A,Summer
India,Karnataka,Bengaluru,"Hebbal, Bengaluru - Kspcb",2026-03-13 15:00:00,13.029152,77.585901,Nh3,3.0,4.0,4.0,2026,3,13,15,Friday,1.0,N/A,Summer
India,Karnataka,Bengaluru,"Hebbal, Bengaluru - Kspcb",2026-03-13 15:00:00,13.029152,77.585901,Co,18.0,51.0,34.0,2026,3,13,15,Friday,33.0,N/A,Summer
India,Karnataka,Bengaluru,"Hebbal, Bengaluru - Kspcb",2026-03-13 15:00:00,13.029152,77.585901,Ozone,9.0,11.0,9.0,2026,3,13,15,Friday,2.0,N/A,Summer
India,Karnataka,Bengaluru,"Hombegowda Nagar, Bengaluru - Kspcb",2026-03-13 15:00:00,12.938539,77.5901,No2,20.0,85.0,46.0,2026,3,13,15,Friday,65.0,N/A,Summer
India,Karnataka,Bengaluru,"Hombegowda Nagar, Bengaluru - Kspcb",2026-03-13 15:00:00,12.938539,77.5901,Nh3,3.0,9.0,4.0,2026,3,13,15,Friday,6.0,N/A,Summer
India,Jharkhand,Dhanbad,"Sardar Patel Nagar, Dhanbad - Jspcb",2026-03-13 15:00:00,23.80569,86.44268,Ozone,1.0,55.0,32.0,2026,3,13,15,Friday,54.0,N/A,Summer
India,Karnataka,Bagalkot,"Vidayagiri, Bagalkot - Kspcb",2026-03-13 15:00:00,16.172806,75.659694,Pm10,45.0,46.0,46.0,2026,3,13,15,Friday,1.0,N/A,Summer
India,Karnataka,Bengaluru,"Btm Layout, Bengaluru - Cpcb",2026-03-13 15:00:00,12.9135218,77.5950804,So2,17.0,17.0,17.0,2026,3,13,15,Friday,0.0,N/A,Summer
India,Karnataka,Bengaluru,"Bwssb Kadabesanahalli, Bengaluru - Cpcb",2026-03-13 15:00:00,12.9352049,77.6814488,So2,2.0,8.0,4.0,2026,3,13,15,Friday,6.0,N/A,Summer
India,Karnataka,Bengaluru,"Jigani, Bengaluru - Kspcb",2026-03-13 15:00:00,12.7816279,77.6299145,No2,21.0,22.0,22.0,2026,3,13,15,Friday,1.0,N/A,Summer
India,Karnataka,Bengaluru,"Jigani, Bengaluru - Kspcb",2026-03-13 15:00:00,12.7816279,77.6299145,Nh3,3.0,3.0,3.0,2026,3,13,15,Friday,0.0,N/A,Summer
India,Karnataka,Bengaluru,"Jigani, Bengaluru - Kspcb",2026-03-13 15:00:00,12.7816279,77.6299145,So2,18.0,19.0,18.0,2026,3,13,15,Friday,1.0,N/A,Summer
India,Karnataka,Bengaluru,"Jigani, Bengaluru - Kspcb",2026-03-13 15:00:00,12.7816279,77.6299145,Co,42.0,44.0,43.0,2026,3,13,15,Friday,2.0,N/A,Summer
India,Karnataka,Bengaluru,"Jayanagar 5Th Block, Bengaluru - Kspcb",2026-03-13 15:00:00,12.920984,77.584908,Pm10,88.0,168.0,120.0,2026,3,13,15,Friday,80.0,N/A,Summer
India,Karnataka,Bengaluru,"Jayanagar 5Th Block, Bengaluru - Kspcb",2026-03-13 15:00:00,12.920984,77.584908,No2,2.0,23.0,12.0,2026,3,13,15,Friday,21.0,N/A,Summer
India,Karnataka,Bengaluru,"Jayanagar 5Th Block, Bengaluru - Kspcb",2026-03-13 15:00:00,12.920984,77.584908,Ozone,8.0,98.0,71.0,2026,3,13,15,Friday,90.0,N/A,Summer
India,Karnataka,Bengaluru,"Rvce-Mailasandra, Bengaluru - Kspcb",2026-03-13 15:00:00,12.921418,77.502466,So2,13.0,40.5,23.0,2026,3,13,15,Friday,27.5,N/A,Summer
India,Haryana,Sirsa,"F-Block, Sirsa - Hspcb",2026-03-13 15:00:00,29.5364,75.0158,Nh3,6.0,15.5,14.0,2026,3,13,15,Friday,9.5,N/A,Summer
India,Karnataka,Yadgir,"Collector Office, Yadgir - Kspcb",2026-03-13 15:00:00,16.7602,77.1428,Co,15.0,44.0,22.0,2026,3,13,15,Friday,29.0,N/A,Summer
India,Kerala,Eloor,"Udyogamandal, Eloor - Kerala Pcb",2026-03-13 15:00:00,10.073232,76.302765,No2,6.0,7.0,7.0,2026,3,13,15,Friday,1.0,N/A,Summer
India,Kerala,Kannur,"Thavakkara, Kannur - Kerala Pcb",2026-03-13 15:00:00,11.875,75.3732,Pm2.5,58.0,71.0,65.0,2026,3,13,15,Friday,13.0,N/A,Summer
India,Kerala,Kannur,"Thavakkara, Kannur - Kerala Pcb",2026-03-13 15:00:00,11.875,75.3732,So2,1.0,14.0,4.0,2026,3,13,15,Friday,13.0,N/A,Summer
India,Kerala,Kannur,"Thavakkara, Kannur - Kerala Pcb",2026-03-13 15:00:00,11.875,75.3732,Ozone,27.0,32.0,30.0,2026,3,13,15,Friday,5.0,N/A,Summer
India,Kerala,Kollam,"Polayathode, Kollam - Kerala Pcb",2026-03-13 15:00:00,8.8787,76.6073,Ozone,34.0,35.0,35.0,2026,3,13,15,Friday,1.0,N/A,Summer
India,Karnataka,Mangalore,"Kadri, Mangalore - Kspcb",2026-03-13 15:00:00,12.88925,74.853,Pm10,61.0,152.0,106.0,2026,3,13,15,Friday,91.0,N/A,Summer
India,Karnataka,Mangalore,"Kadri, Mangalore - Kspcb",2026-03-13 15:00:00,12.88925,74.853,Nh3,4.0,7.0,5.0,2026,3,13,15,Friday,3.0,N/A,Summer
India,Karnataka,Mysuru,"Hebbal 1St Stage, Mysuru - Kspcb",2026-03-13 15:00:00,12.21041,76.37376,Pm10,44.0,127.0,77.0,2026,3,13,15,Friday,83.0,N/A,Summer
India,Karnataka,Ramanagara,"Vijay Nagar, Ramanagara - Kspcb",2026-03-13 15:00:00,12.733409,77.298051,Pm10,52.0,122.0,77.0,2026,3,13,15,Friday,70.0,N/A,Summer
India,Karnataka,Shivamogga,"Vinoba Nagara, Shivamogga - Kspcb",2026-03-13 15:00:00,13.94,75.555917,Pm10,50.0,63.0,51.0,2026,3,13,15,Friday,13.0,N/A,Summer
India,Karnataka,Chikkamagaluru,"Kalyana Nagara, Chikkamagaluru - Kspcb",2026-03-13 15:00:00,13.328028,75.797056,Nh3,1.0,3.0,2.0,2026,3,13,15,Friday,2.0,N/A,Summer
India,Karnataka,Dharwad,"Kalabhavan, Dharwad - Kspcb",2026-03-13 15:00:00,15.459706,75.008381,So2,7.0,9.0,8.0,2026,3,13,15,Friday,2.0,N/A,Summer
India,Karnataka,Dharwad,"Kalabhavan, Dharwad - Kspcb",2026-03-13 15:00:00,15.459706,75.008381,Ozone,28.0,46.0,39.0,2026,3,13,15,Friday,18.0,N/A,Summer
India,Karnataka,Hubballi,"Deshpande Nagar, Hubballi - Kspcb",2026-03-13 15:00:00,15.351773,75.140726,So2,7.0,21.0,13.0,2026,3,13,15,Friday,14.0,N/A,Summer
India,Madhya Pradesh,Bhopal,"T T Nagar, Bhopal - Mppcb",2026-03-13 15:00:00,23.233584,77.400574,No2,20.0,85.0,45.0,2026,3,13,15,Friday,65.0,N/A,Summer
India,Madhya Pradesh,Damoh,"Shrivastav Colony, Damoh - Mppcb",2026-03-13 15:00:00,23.81748678,79.446246,Pm2.5,67.0,213.0,189.0,2026,3,13,15,Friday,146.0,N/A,Summer
India,Madhya Pradesh,Damoh,"Shrivastav Colony, Damoh - Mppcb",2026-03-13 15:00:00,23.81748678,79.446246,Pm10,66.0,214.5,155.0,2026,3,13,15,Friday,148.5,N/A,Summer
India,Madhya Pradesh,Damoh,"Shrivastav Colony, Damoh - Mppcb",2026-03-13 15:00:00,23.81748678,79.446246,So2,8.0,40.5,19.0,2026,3,13,15,Friday,32.5,N/A,Summer
India,Madhya Pradesh,Bhopal,"Idgah Hills, Bhopal - Mppcb",2026-03-13 15:00:00,23.264759,77.381568,Ozone,21.0,85.0,61.0,2026,3,13,15,Friday,64.0,N/A,Summer
India,Madhya Pradesh,Bhopal,"Paryavaran Parisar, Bhopal - Mppcb",2026-03-13 15:00:00,23.210494,77.425409,Pm10,50.0,214.5,104.0,2026,3,13,15,Friday,164.5,N/A,Summer
India,Madhya Pradesh,Bhopal,"T T Nagar, Bhopal - Mppcb",2026-03-13 15:00:00,23.233584,77.400574,Pm10,62.0,171.0,98.0,2026,3,13,15,Friday,109.0,N/A,Summer
India,Kerala,Thiruvananthapuram,"Plammoodu, Thiruvananthapuram - Kerala Pcb",2026-03-13 15:00:00,8.5149093,76.9435879,So2,3.0,27.0,13.0,2026,3,13,15,Friday,24.0,N/A,Summer
India,Kerala,Thrissur,"Corporation Ground, Thrissur - Kerala Pcb",2026-03-13 15:00:00,10.5324,76.2159,No2,14.0,40.0,26.0,2026,3,13,15,Friday,26.0,N/A,Summer
India,Madhya Pradesh,Bhopal,"Idgah Hills, Bhopal - Mppcb",2026-03-13 15:00:00,23.264759,77.381568,No2,16.0,65.0,29.0,2026,3,13,15,Friday,49.0,N/A,Summer
India,Karnataka,Bengaluru,"Shivapura Peenya, Bengaluru - Kspcb",2026-03-13 15:00:00,13.0246342,77.5080115,Nh3,4.0,4.0,4.0,2026,3,13,15,Friday,0.0,N/A,Summer
India,Karnataka,Chamarajanagar,"Urban, Chamarajanagar - Kspcb",2026-03-13 15:00:00,11.55358,76.55521,Pm2.5,26.0,48.0,31.0,2026,3,13,15,Friday,22.0,N/A,Summer
India,Madhya Pradesh,Mandideep,"Sector-D Industrial Area, Mandideep - Mppcb",2026-03-13 15:00:00,23.10844,77.511428,Pm10,67.0,214.5,134.0,2026,3,13,15,Friday,147.5,N/A,Summer
India,Madhya Pradesh,Mandideep,"Sector-D Industrial Area, Mandideep - Mppcb",2026-03-13 15:00:00,23.10844,77.511428,No2,18.0,85.0,69.0,2026,3,13,15,Friday,67.0,N/A,Summer
India,Madhya Pradesh,Pithampur,"Sector-2 Industrial Area, Pithampur - Mppcb",2026-03-13 15:00:00,22.624758,75.675238,Co,4.0,54.0,37.0,2026,3,13,15,Friday,50.0,N/A,Summer
India,Madhya Pradesh,Sagar,"Civil Lines, Sagar - Mppcb",2026-03-13 15:00:00,23.838586,78.759431,Pm2.5,17.0,79.0,42.0,2026,3,13,15,Friday,62.0,N/A,Summer
India,Madhya Pradesh,Sagar,"Civil Lines, Sagar - Mppcb",2026-03-13 15:00:00,23.838586,78.759431,Pm10,54.0,137.0,89.0,2026,3,13,15,Friday,83.0,N/A,Summer
India,Madhya Pradesh,Sagar,"Deen Dayal Nagar, Sagar - Mppcb",2026-03-13 15:00:00,23.8640158,78.80289321,No2,5.0,85.0,46.0,2026,3,13,15,Friday,80.0,N/A,Summer
India,Madhya Pradesh,Jabalpur,"Govindh Bhavan Colony, Jabalpur - Jmc",2026-03-13 15:00:00,23.163174,79.973061,Pm2.5,28.0,85.0,51.0,2026,3,13,15,Friday,57.0,N/A,Summer
India,Madhya Pradesh,Jabalpur,"Govindh Bhavan Colony, Jabalpur - Jmc",2026-03-13 15:00:00,23.163174,79.973061,Pm10,54.0,119.0,82.0,2026,3,13,15,Friday,65.0,N/A,Summer
India,Madhya Pradesh,Jabalpur,"Govindh Bhavan Colony, Jabalpur - Jmc",2026-03-13 15:00:00,23.163174,79.973061,Ozone,7.0,105.0,42.0,2026,3,13,15,Friday,98.0,N/A,Summer
India,Madhya Pradesh,Jabalpur,"Gupteshwar, Jabalpur - Jmc",2026-03-13 15:00:00,23.142888,79.916147,So2,1.0,16.0,10.0,2026,3,13,15,Friday,15.0,N/A,Summer
India,Madhya Pradesh,Dewas,"Bhopal Chauraha, Dewas - Mppcb",2026-03-13 15:00:00,22.9682591,76.064118,No2,42.0,85.0,85.0,2026,3,13,15,Friday,43.0,N/A,Summer
India,Madhya Pradesh,Dewas,"Bhopal Chauraha, Dewas - Mppcb",2026-03-13 15:00:00,22.9682591,76.064118,So2,1.0,40.5,34.0,2026,3,13,15,Friday,39.5,N/A,Summer
India,Madhya Pradesh,Gwalior,"City Center, Gwalior - Mppcb",2026-03-13 15:00:00,26.203442,78.193251,So2,8.0,24.0,15.0,2026,3,13,15,Friday,16.0,N/A,Summer
India,Madhya Pradesh,Jabalpur,"Suhagi, Jabalpur - Jmc",2026-03-13 15:00:00,23.218135,79.95777,Nh3,4.0,7.0,6.0,2026,3,13,15,Friday,3.0,N/A,Summer
India,Madhya Pradesh,Jabalpur,"Suhagi, Jabalpur - Jmc",2026-03-13 15:00:00,23.218135,79.95777,So2,6.0,15.0,10.0,2026,3,13,15,Friday,9.0,N/A,Summer
India,Madhya Pradesh,Katni,"Gole Bazar, Katni - Mppcb",2026-03-13 15:00:00,23.50016,80.23284,Nh3,5.0,10.0,8.0,2026,3,13,15,Friday,5.0,N/A,Summer
India,Madhya Pradesh,Indore,"Airport Area, Indore - Imc",2026-03-13 15:00:00,22.7289,75.8076,Ozone,13.0,25.0,18.0,2026,3,13,15,Friday,12.0,N/A,Summer
India,Madhya Pradesh,Indore,"Chhoti Gwaltoli, Indore - Mppcb",2026-03-13 15:00:00,22.431,75.5213,Pm2.5,26.0,213.0,87.0,2026,3,13,15,Friday,187.0,N/A,Summer
India,Madhya Pradesh,Indore,"Chhoti Gwaltoli, Indore - Mppcb",2026-03-13 15:00:00,22.431,75.5213,No2,47.0,85.0,85.0,2026,3,13,15,Friday,38.0,N/A,Summer
India,Madhya Pradesh,Indore,"Chhoti Gwaltoli, Indore - Mppcb",2026-03-13 15:00:00,22.431,75.5213,Ozone,2.0,51.0,21.0,2026,3,13,15,Friday,49.0,N/A,Summer
India,Madhya Pradesh,Indore,"Regional Park, Indore - Imc",2026-03-13 15:00:00,22.678,75.8559,Pm10,21.0,115.0,55.0,2026,3,13,15,Friday,94.0,N/A,Summer
India,Madhya Pradesh,Gwalior,"City Center, Gwalior - Mppcb",2026-03-13 15:00:00,26.203442,78.193251,Ozone,33.0,114.0,62.0,2026,3,13,15,Friday,81.0,N/A,Summer
India,Madhya Pradesh,Gwalior,"Deen Dayal Nagar, Gwalior - Mppcb",2026-03-13 15:00:00,26.259242,78.216432,Pm2.5,57.0,213.0,143.0,2026,3,13,15,Friday,156.0,N/A,Summer
India,Madhya Pradesh,Satna,"Bandhavgar Colony, Satna - Birla Cement",2026-03-13 15:00:00,24.58434363,80.8549414,Co,14.0,61.0,22.0,2026,3,13,15,Friday,47.0,N/A,Summer
India,Madhya Pradesh,Indore,"Regional Park, Indore - Imc",2026-03-13 15:00:00,22.678,75.8559,Ozone,5.0,11.0,9.0,2026,3,13,15,Friday,6.0,N/A,Summer
India,Maharashtra,Ahmednagar,"Tarakpur, Ahmednagar - Mpcb",2026-03-13 15:00:00,19.10122,74.73339,So2,7.0,21.0,13.0,2026,3,13,15,Friday,14.0,N/A,Summer
India,Maharashtra,Akola,"Ramdaspeth, Akola - Mpcb",2026-03-13 15:00:00,20.719516,77.000253,Pm2.5,44.0,176.0,96.0,2026,3,13,15,Friday,132.0,N/A,Summer
India,Maharashtra,Akola,"Ramdaspeth, Akola - Mpcb",2026-03-13 15:00:00,20.719516,77.000253,Nh3,6.0,8.0,8.0,2026,3,13,15,Friday,2.0,N/A,Summer
India,Maharashtra,Ambernath,"Chinchpada, Ambernath - Mpcb",2026-03-13 15:00:00,19.215784,73.199781,Pm2.5,34.0,149.0,83.0,2026,3,13,15,Friday,115.0,N/A,Summer
India,Maharashtra,Ambernath,"Chinchpada, Ambernath - Mpcb",2026-03-13 15:00:00,19.215784,73.199781,Pm10,30.0,142.0,93.0,2026,3,13,15,Friday,112.0,N/A,Summer
India,Maharashtra,Amravati,"Shri Shivaji Science College, Amravati - Mpcb",2026-03-13 15:00:00,20.939198,77.765701,Pm10,42.0,198.0,102.0,2026,3,13,15,Friday,156.0,N/A,Summer
India,Maharashtra,Amravati,"Shri Shivaji Science College, Amravati - Mpcb",2026-03-13 15:00:00,20.939198,77.765701,Co,24.0,61.0,39.0,2026,3,13,15,Friday,37.0,N/A,Summer
India,Madhya Pradesh,Singrauli,"Suryakiran Bhawan Ncl, Singrauli - Mppcb",2026-03-13 15:00:00,24.10897,82.64558,Co,28.0,61.0,49.0,2026,3,13,15,Friday,33.0,N/A,Summer
India,Madhya Pradesh,Singrauli,"Suryakiran Bhawan Ncl, Singrauli - Mppcb",2026-03-13 15:00:00,24.10897,82.64558,Nh3,4.0,5.0,4.0,2026,3,13,15,Friday,1.0,N/A,Summer
India,Maharashtra,Amravati,"Shivneri Colony, Amravati - Mpcb",2026-03-13 15:00:00,20.9402359,77.7895248,So2,7.0,21.0,13.0,2026,3,13,15,Friday,14.0,N/A,Summer
India,Maharashtra,Ahmednagar,"Tarakpur, Ahmednagar - Mpcb",2026-03-13 15:00:00,19.10122,74.73339,Pm10,22.0,214.5,110.0,2026,3,13,15,Friday,192.5,N/A,Summer
India,Maharashtra,Akola,"Ramdaspeth, Akola - Mpcb",2026-03-13 15:00:00,20.719516,77.000253,Co,17.0,50.0,20.0,2026,3,13,15,Friday,33.0,N/A,Summer
India,Maharashtra,Belapur,"Cbd Belapur, Belapur - Mpcb",2026-03-13 15:00:00,19.0243902,73.0406721,No2,18.0,29.0,23.0,2026,3,13,15,Friday,11.0,N/A,Summer
India,Maharashtra,Belapur,"Cbd Belapur, Belapur - Mpcb",2026-03-13 15:00:00,19.0243902,73.0406721,Co,2.0,22.0,13.0,2026,3,13,15,Friday,20.0,N/A,Summer
India,Maharashtra,Aurangabad,"More Chowk Waluj, Aurangabad - Mpcb",2026-03-13 15:00:00,19.8389439,75.244448,Pm2.5,73.0,213.0,162.0,2026,3,13,15,Friday,140.0,N/A,Summer
India,Maharashtra,Aurangabad,"Midc Chilkalthana, Aurangabad - Mpcb",2026-03-13 15:00:00,19.87562,75.38731,Pm2.5,32.0,67.0,48.0,2026,3,13,15,Friday,35.0,N/A,Summer
India,Maharashtra,Aurangabad,"Rachnakar Colony, Aurangabad - Mpcb",2026-03-13 15:00:00,19.863756,75.321188,No2,12.0,85.0,48.0,2026,3,13,15,Friday,73.0,N/A,Summer
India,Maharashtra,Aurangabad,"Rachnakar Colony, Aurangabad - Mpcb",2026-03-13 15:00:00,19.863756,75.321188,Co,16.0,61.0,27.0,2026,3,13,15,Friday,45.0,N/A,Summer
India,Maharashtra,Aurangabad,"More Chowk Waluj, Aurangabad - Mpcb",2026-03-13 15:00:00,19.8389439,75.244448,Nh3,10.0,11.0,11.0,2026,3,13,15,Friday,1.0,N/A,Summer
India,Maharashtra,Aurangabad,"Midc Chilkalthana, Aurangabad - Mpcb",2026-03-13 15:00:00,19.87562,75.38731,Co,6.0,14.0,11.0,2026,3,13,15,Friday,8.0,N/A,Summer
India,Maharashtra,Badlapur,"Katrap, Badlapur - Mpcb",2026-03-13 15:00:00,19.16485,73.23409,Pm10,30.0,152.0,99.0,2026,3,13,15,Friday,122.0,N/A,Summer
India,Maharashtra,Boisar,"Khaira, Boisar - Mpcb",2026-03-13 15:00:00,19.786089,72.757971,No2,20.0,48.0,30.0,2026,3,13,15,Friday,28.0,N/A,Summer
India,Maharashtra,Hingoli,"Ashta Vinayak Nagar, Hingoli - Mpcb",2026-03-13 15:00:00,19.710842,77.151824,Pm10,42.0,166.0,87.0,2026,3,13,15,Friday,124.0,N/A,Summer
India,Maharashtra,Hingoli,"Ashta Vinayak Nagar, Hingoli - Mpcb",2026-03-13 15:00:00,19.710842,77.151824,Nh3,2.0,5.0,4.0,2026,3,13,15,Friday,3.0,N/A,Summer
India,Maharashtra,Hingoli,"Ashta Vinayak Nagar, Hingoli - Mpcb",2026-03-13 15:00:00,19.710842,77.151824,So2,4.0,12.0,7.0,2026,3,13,15,Friday,8.0,N/A,Summer
India,Maharashtra,Chandrapur,"Midc Khutala, Chandrapur - Mpcb",2026-03-13 15:00:00,19.9775302,79.2337086,Pm2.5,63.0,213.0,115.0,2026,3,13,15,Friday,150.0,N/A,Summer
India,Maharashtra,Chandrapur,"Chauhan Colony, Chandrapur - Mpcb",2026-03-13 15:00:00,19.9629,79.298714,Ozone,11.0,24.0,18.0,2026,3,13,15,Friday,13.0,N/A,Summer
India,Maharashtra,Chandrapur,"Chauhan Colony, Chandrapur - Mpcb",2026-03-13 15:00:00,19.9629,79.298714,No2,31.0,35.0,32.0,2026,3,13,15,Friday,4.0,N/A,Summer
India,Maharashtra,Chandrapur,"Midc Khutala, Chandrapur - Mpcb",2026-03-13 15:00:00,19.9775302,79.2337086,So2,13.0,40.5,40.5,2026,3,13,15,Friday,27.5,N/A,Summer
India,Maharashtra,Dombivli,"Kalu Nagar, Dombivli - Mpcb",2026-03-13 15:00:00,19.2268427,73.0788456,No2,18.0,81.0,54.0,2026,3,13,15,Friday,63.0,N/A,Summer
India,Maharashtra,Dhule,"Deopur, Dhule - Mpcb",2026-03-13 15:00:00,20.918946,74.776388,Pm2.5,26.0,79.0,53.0,2026,3,13,15,Friday,53.0,N/A,Summer
India,Maharashtra,Boisar,"Khaira, Boisar - Mpcb",2026-03-13 15:00:00,19.786089,72.757971,Co,12.0,61.0,38.0,2026,3,13,15,Friday,49.0,N/A,Summer
India,Maharashtra,Dhule,"Deopur, Dhule - Mpcb",2026-03-13 15:00:00,20.918946,74.776388,So2,3.0,40.5,10.0,2026,3,13,15,Friday,37.5,N/A,Summer
India,Maharashtra,Mira-Bhayandar,"Bhayandar West, Mira-Bhayandar - Mpcb",2026-03-13 15:00:00,19.296481,72.840923,No2,21.0,85.0,41.0,2026,3,13,15,Friday,64.0,N/A,Summer
India,Maharashtra,Mira-Bhayandar,"Bhayandar West, Mira-Bhayandar - Mpcb",2026-03-13 15:00:00,19.296481,72.840923,Ozone,1.0,83.0,57.0,2026,3,13,15,Friday,82.0,N/A,Summer
India,Maharashtra,Mumbai,"Bandra Kurla Complex, Mumbai - Mpcb",2026-03-13 15:00:00,19.065931,72.862131,Pm10,70.0,148.0,108.0,2026,3,13,15,Friday,78.0,N/A,Summer
India,Maharashtra,Mumbai,"Bandra Kurla Complex, Mumbai - Mpcb",2026-03-13 15:00:00,19.065931,72.862131,Ozone,1.0,93.0,44.0,2026,3,13,15,Friday,92.0,N/A,Summer
India,Maharashtra,Mumbai,"Borivali East, Mumbai - Mpcb",2026-03-13 15:00:00,19.2243333,72.8658113,Nh3,1.0,8.0,4.0,2026,3,13,15,Friday,7.0,N/A,Summer
India,Maharashtra,Mumbai,"Borivali East, Mumbai - Mpcb",2026-03-13 15:00:00,19.2243333,72.8658113,So2,15.0,20.0,18.0,2026,3,13,15,Friday,5.0,N/A,Summer
India,Maharashtra,Mumbai,"Byculla, Mumbai - Bmc",2026-03-13 15:00:00,18.9767,72.838,Pm10,70.0,133.0,92.0,2026,3,13,15,Friday,63.0,N/A,Summer
India,Maharashtra,Mumbai,"Chakala-Andheri East, Mumbai - Iitm",2026-03-13 15:00:00,19.11074,72.86084,No2,46.0,85.0,70.0,2026,3,13,15,Friday,39.0,N/A,Summer
India,Maharashtra,Mumbai,"Chembur, Mumbai - Mpcb",2026-03-13 15:00:00,19.0364585,72.8954371,So2,7.0,21.0,13.0,2026,3,13,15,Friday,14.0,N/A,Summer
India,Maharashtra,Mumbai,"Deonar, Mumbai - Iitm",2026-03-13 15:00:00,19.04946,72.923,Co,24.0,61.0,46.0,2026,3,13,15,Friday,37.0,N/A,Summer
India,Maharashtra,Mahad,"Kamble Tarf Birwadi, Mahad - Mpcb",2026-03-13 15:00:00,18.1023399,73.4783687,Ozone,20.0,81.0,45.0,2026,3,13,15,Friday,61.0,N/A,Summer
India,Maharashtra,Malegaon,"Mahesh Nagar, Malegaon - Mpcb",2026-03-13 15:00:00,20.555712,74.529236,Pm2.5,31.0,213.0,105.0,2026,3,13,15,Friday,182.0,N/A,Summer
India,Maharashtra,Kolhapur,"Sinchan Bhavan, Kolhapur - Mpcb",2026-03-13 15:00:00,16.7143745,74.2426398,Co,12.0,56.0,40.0,2026,3,13,15,Friday,44.0,N/A,Summer
India,Maharashtra,Latur,"Sawe Wadi, Latur - Mpcb",2026-03-13 15:00:00,18.39963,76.57452,Pm10,47.0,140.0,86.0,2026,3,13,15,Friday,93.0,N/A,Summer
India,Maharashtra,Kolhapur,"Shivaji University, Kolhapur - Mpcb",2026-03-13 15:00:00,16.6870449,74.2505872,Pm2.5,39.0,93.0,59.0,2026,3,13,15,Friday,54.0,N/A,Summer
India,Maharashtra,Kolhapur,"Shivaji University, Kolhapur - Mpcb",2026-03-13 15:00:00,16.6870449,74.2505872,Co,14.0,46.0,32.0,2026,3,13,15,Friday,32.0,N/A,Summer
India,Maharashtra,Kolhapur,"Shivaji University, Kolhapur - Mpcb",2026-03-13 15:00:00,16.6870449,74.2505872,Ozone,12.0,72.0,46.0,2026,3,13,15,Friday,60.0,N/A,Summer
India,Maharashtra,Jalgaon,"Prabhat Colony, Jalgaon - Mpcb",2026-03-13 15:00:00,21.001264,75.565602,Co,14.0,61.0,22.0,2026,3,13,15,Friday,47.0,N/A,Summer
India,Maharashtra,Jalgaon,"Prabhat Colony, Jalgaon - Mpcb",2026-03-13 15:00:00,21.001264,75.565602,Ozone,1.0,113.0,81.0,2026,3,13,15,Friday,112.0,N/A,Summer
India,Maharashtra,Hingoli,"Ashta Vinayak Nagar, Hingoli - Mpcb",2026-03-13 15:00:00,19.710842,77.151824,Ozone,2.0,114.0,114.0,2026,3,13,15,Friday,112.0,N/A,Summer
India,Maharashtra,Jalna,"Old Midc, Jalna - Mpcb",2026-03-13 15:00:00,19.854616,75.905894,Pm10,39.0,142.0,62.0,2026,3,13,15,Friday,103.0,N/A,Summer
India,Maharashtra,Kalyan,"Khadakpada, Kalyan - Mpcb",2026-03-13 15:00:00,19.25292,73.142019,No2,35.0,37.0,37.0,2026,3,13,15,Friday,2.0,N/A,Summer
India,Maharashtra,Mumbai,"Mazgaon, Mumbai - Iitm",2026-03-13 15:00:00,18.96702,72.84214,No2,37.0,85.0,76.0,2026,3,13,15,Friday,48.0,N/A,Summer
India,Maharashtra,Mumbai,"Mazgaon, Mumbai - Iitm",2026-03-13 15:00:00,18.96702,72.84214,So2,7.0,12.0,9.0,2026,3,13,15,Friday,5.0,N/A,Summer
India,Maharashtra,Mumbai,"Mindspace-Malad West, Mumbai - Mpcb",2026-03-13 15:00:00,19.1878657,72.8304069,Ozone,1.0,6.0,1.0,2026,3,13,15,Friday,5.0,N/A,Summer
India,Maharashtra,Mumbai,"Mulund West, Mumbai - Mpcb",2026-03-13 15:00:00,19.175,72.9419,Pm2.5,46.0,196.0,78.0,2026,3,13,15,Friday,150.0,N/A,Summer
India,Maharashtra,Mumbai,"Mulund West, Mumbai - Mpcb",2026-03-13 15:00:00,19.175,72.9419,So2,7.0,21.0,13.0,2026,3,13,15,Friday,14.0,N/A,Summer
India,Maharashtra,Mumbai,"Navy Nagar-Colaba, Mumbai - Iitm",2026-03-13 15:00:00,18.897756,72.81332,Pm2.5,63.0,183.0,99.0,2026,3,13,15,Friday,120.0,N/A,Summer
India,Maharashtra,Mumbai,"Navy Nagar-Colaba, Mumbai - Iitm",2026-03-13 15:00:00,18.897756,72.81332,Nh3,11.0,15.0,12.0,2026,3,13,15,Friday,4.0,N/A,Summer
India,Maharashtra,Mumbai,"Navy Nagar-Colaba, Mumbai - Iitm",2026-03-13 15:00:00,18.897756,72.81332,So2,7.0,15.0,11.0,2026,3,13,15,Friday,8.0,N/A,Summer
India,Maharashtra,Mumbai,"Navy Nagar-Colaba, Mumbai - Iitm",2026-03-13 15:00:00,18.897756,72.81332,Ozone,22.0,78.0,51.0,2026,3,13,15,Friday,56.0,N/A,Summer
India,Maharashtra,Navi Mumbai,"Nerul, Navi Mumbai - Mpcb",2026-03-13 15:00:00,19.008751,73.01662,No2,49.0,49.0,49.0,2026,3,13,15,Friday,0.0,N/A,Summer
India,Maharashtra,Navi Mumbai,"Nerul, Navi Mumbai - Mpcb",2026-03-13 15:00:00,19.008751,73.01662,Ozone,20.0,20.0,20.0,2026,3,13,15,Friday,0.0,N/A,Summer
India,Maharashtra,Navi Mumbai,"Sanpada, Navi Mumbai - Mpcb",2026-03-13 15:00:00,19.0575752,73.0151367,Pm2.5,46.0,157.0,78.0,2026,3,13,15,Friday,111.0,N/A,Summer
India,Maharashtra,Navi Mumbai,"Sanpada, Navi Mumbai - Mpcb",2026-03-13 15:00:00,19.0575752,73.0151367,Pm10,78.0,140.0,105.0,2026,3,13,15,Friday,62.0,N/A,Summer
India,Maharashtra,Navi Mumbai,"Sector-2E Kalamboli, Navi Mumbai - Mpcb",2026-03-13 15:00:00,19.02579,73.10297,No2,10.0,33.0,22.0,2026,3,13,15,Friday,23.0,N/A,Summer
India,Maharashtra,Navi Mumbai,"Tondare-Taloja, Navi Mumbai - Mpcb",2026-03-13 15:00:00,19.063,73.1209,No2,6.0,20.0,14.0,2026,3,13,15,Friday,14.0,N/A,Summer
India,Maharashtra,Navi Mumbai,"Tondare-Taloja, Navi Mumbai - Mpcb",2026-03-13 15:00:00,19.063,73.1209,So2,10.0,15.0,11.0,2026,3,13,15,Friday,5.0,N/A,Summer
India,Maharashtra,Parbhani,"Masoom Colony, Parbhani - Mpcb",2026-03-13 15:00:00,19.265594,76.761463,Pm2.5,41.0,213.0,113.0,2026,3,13,15,Friday,172.0,N/A,Summer
India,Maharashtra,Nagpur,"Mahal, Nagpur - Mpcb",2026-03-13 15:00:00,21.14472,79.107595,So2,13.0,40.5,40.5,2026,3,13,15,Friday,27.5,N/A,Summer
India,Maharashtra,Nagpur,"Mahal, Nagpur - Mpcb",2026-03-13 15:00:00,21.14472,79.107595,Ozone,6.0,39.0,28.0,2026,3,13,15,Friday,33.0,N/A,Summer
India,Maharashtra,Nagpur,"Opp Gpo Civil Lines, Nagpur - Mpcb",2026-03-13 15:00:00,21.152875,79.0517531,Nh3,1.0,14.0,8.0,2026,3,13,15,Friday,13.0,N/A,Summer
India,Maharashtra,Nagpur,"Opp Gpo Civil Lines, Nagpur - Mpcb",2026-03-13 15:00:00,21.152875,79.0517531,Co,16.0,61.0,35.0,2026,3,13,15,Friday,45.0,N/A,Summer
India,Maharashtra,Nagpur,"Ram Nagar, Nagpur - Mpcb",2026-03-13 15:00:00,21.143383,79.048912,Pm10,54.0,139.0,108.0,2026,3,13,15,Friday,85.0,N/A,Summer
India,Maharashtra,Nanded,"Sneh Nagar, Nanded - Mpcb",2026-03-13 15:00:00,19.173852,77.296291,Pm10,69.0,170.0,118.0,2026,3,13,15,Friday,101.0,N/A,Summer
India,Maharashtra,Nanded,"Sneh Nagar, Nanded - Mpcb",2026-03-13 15:00:00,19.173852,77.296291,Nh3,4.0,5.0,4.0,2026,3,13,15,Friday,1.0,N/A,Summer
India,Maharashtra,Nanded,"Sneh Nagar, Nanded - Mpcb",2026-03-13 15:00:00,19.173852,77.296291,So2,7.0,8.0,7.0,2026,3,13,15,Friday,1.0,N/A,Summer
India,Maharashtra,Parbhani,"Masoom Colony, Parbhani - Mpcb",2026-03-13 15:00:00,19.265594,76.761463,So2,7.0,22.0,12.0,2026,3,13,15,Friday,15.0,N/A,Summer
India,Maharashtra,Pimpri-Chinchwad,"Gavalinagar, Pimpri Chinchwad - Mpcb",2026-03-13 15:00:00,18.63673,73.82487,Pm2.5,59.0,103.0,79.0,2026,3,13,15,Friday,44.0,N/A,Summer
India,Maharashtra,Pimpri-Chinchwad,"Park Street Wakad, Pimpri Chinchwad - Mpcb",2026-03-13 15:00:00,18.59051,73.77946,Pm2.5,37.0,157.0,80.0,2026,3,13,15,Friday,120.0,N/A,Summer
India,Maharashtra,Pimpri-Chinchwad,"Park Street Wakad, Pimpri Chinchwad - Mpcb",2026-03-13 15:00:00,18.59051,73.77946,No2,14.0,40.0,26.0,2026,3,13,15,Friday,26.0,N/A,Summer
India,Maharashtra,Pimpri-Chinchwad,"Savta Mali Nagar, Pimpri-Chinchwad - Iitm",2026-03-13 15:00:00,18.614767,73.799516,No2,23.0,85.0,78.0,2026,3,13,15,Friday,62.0,N/A,Summer
India,Maharashtra,Pimpri-Chinchwad,"Thergaon, Pimpri Chinchwad - Mpcb",2026-03-13 15:00:00,18.616318,73.765797,Pm10,79.0,152.0,114.0,2026,3,13,15,Friday,73.0,N/A,Summer
India,Maharashtra,Nashik,"Gangapur Road, Nashik - Mpcb",2026-03-13 15:00:00,20.0073285,73.7762427,Pm10,59.0,137.0,107.0,2026,3,13,15,Friday,78.0,N/A,Summer
India,Maharashtra,Nashik,"Hirawadi, Nashik - Mpcb",2026-03-13 15:00:00,20.021503,73.813844,Pm2.5,45.0,138.0,88.0,2026,3,13,15,Friday,93.0,N/A,Summer
India,Maharashtra,Nashik,"Hirawadi, Nashik - Mpcb",2026-03-13 15:00:00,20.021503,73.813844,Ozone,2.0,91.0,71.0,2026,3,13,15,Friday,89.0,N/A,Summer
India,Maharashtra,Nashik,"Midc Ambad, Nashik - Mpcb",2026-03-13 15:00:00,19.95022,73.73148,Pm10,80.0,135.0,111.0,2026,3,13,15,Friday,55.0,N/A,Summer
India,Maharashtra,Nashik,"Midc Ambad, Nashik - Mpcb",2026-03-13 15:00:00,19.95022,73.73148,No2,7.0,48.0,15.0,2026,3,13,15,Friday,41.0,N/A,Summer
India,Maharashtra,Nashik,"Midc Ambad, Nashik - Mpcb",2026-03-13 15:00:00,19.95022,73.73148,Co,30.0,32.0,30.0,2026,3,13,15,Friday,2.0,N/A,Summer
India,Maharashtra,Navi Mumbai,"Mahape, Navi Mumbai - Mpcb",2026-03-13 15:00:00,19.1135051,73.008978,Pm10,100.0,203.0,126.0,2026,3,13,15,Friday,103.0,N/A,Summer
India,Maharashtra,Mumbai,"Kandivali West, Mumbai - Bmc",2026-03-13 15:00:00,19.215859,72.831718,Ozone,9.0,60.0,34.0,2026,3,13,15,Friday,51.0,N/A,Summer
India,Maharashtra,Mumbai,"Kherwadi Bandra East, Mumbai - Mpcb",2026-03-13 15:00:00,19.0632143,72.8456324,So2,1.0,5.0,3.0,2026,3,13,15,Friday,4.0,N/A,Summer
India,Maharashtra,Mumbai,"Kherwadi Bandra East, Mumbai - Mpcb",2026-03-13 15:00:00,19.0632143,72.8456324,Ozone,2.0,61.0,25.0,2026,3,13,15,Friday,59.0,N/A,Summer
India,Maharashtra,Mumbai,"Khindipada-Bhandup West, Mumbai - Iitm",2026-03-13 15:00:00,19.1653323,72.922099,Pm2.5,25.0,183.0,79.0,2026,3,13,15,Friday,158.0,N/A,Summer
India,Maharashtra,Mumbai,"Khindipada-Bhandup West, Mumbai - Iitm",2026-03-13 15:00:00,19.1653323,72.922099,Nh3,2.0,4.0,4.0,2026,3,13,15,Friday,2.0,N/A,Summer
India,Maharashtra,Mumbai,"Malad West, Mumbai - Iitm",2026-03-13 15:00:00,19.19709,72.82204,Pm2.5,23.0,98.0,63.0,2026,3,13,15,Friday,75.0,N/A,Summer
India,Maharashtra,Mumbai,"Malad West, Mumbai - Iitm",2026-03-13 15:00:00,19.19709,72.82204,Pm10,75.0,170.0,116.0,2026,3,13,15,Friday,95.0,N/A,Summer
India,Maharashtra,Mumbai,"Sewri, Mumbai - Bmc",2026-03-13 15:00:00,19.000084,72.85673,Co,18.0,46.0,32.0,2026,3,13,15,Friday,28.0,N/A,Summer
India,Maharashtra,Mumbai,"Shivaji Nagar, Mumbai - Bmc",2026-03-13 15:00:00,19.060498,72.923356,Nh3,4.0,7.0,5.0,2026,3,13,15,Friday,3.0,N/A,Summer
India,Maharashtra,Mumbai,"Vile Parle West, Mumbai - Mpcb",2026-03-13 15:00:00,19.10861,72.83622,Nh3,6.0,6.0,6.0,2026,3,13,15,Friday,0.0,N/A,Summer
India,Maharashtra,Mumbai,"Worli, Mumbai -Mpcb",2026-03-13 15:00:00,18.994218,72.8158167,Nh3,1.0,12.0,3.0,2026,3,13,15,Friday,11.0,N/A,Summer
India,Maharashtra,Mumbai,"Worli, Mumbai -Mpcb",2026-03-13 15:00:00,18.994218,72.8158167,Co,19.0,32.0,28.0,2026,3,13,15,Friday,13.0,N/A,Summer
India,Maharashtra,Nagpur,"Ambazari, Nagpur - Mpcb",2026-03-13 15:00:00,21.121801,79.04952,Pm2.5,58.0,163.0,111.0,2026,3,13,15,Friday,105.0,N/A,Summer
India,Maharashtra,Nagpur,"Ambazari, Nagpur - Mpcb",2026-03-13 15:00:00,21.121801,79.04952,Co,10.0,61.0,26.0,2026,3,13,15,Friday,51.0,N/A,Summer
India,Maharashtra,Nagpur,"Mahal, Nagpur - Mpcb",2026-03-13 15:00:00,21.14472,79.107595,Pm2.5,67.0,213.0,136.0,2026,3,13,15,Friday,146.0,N/A,Summer
India,Maharashtra,Mumbai,"Ghatkopar, Mumbai - Bmc",2026-03-13 15:00:00,19.083694,72.920967,Pm2.5,73.0,138.0,97.0,2026,3,13,15,Friday,65.0,N/A,Summer
India,Maharashtra,Mumbai,"Kandivali East, Mumbai - Mpcb",2026-03-13 15:00:00,19.2058,72.8682,Co,27.0,31.0,29.0,2026,3,13,15,Friday,4.0,N/A,Summer
India,Maharashtra,Mumbai,"Kandivali West, Mumbai - Bmc",2026-03-13 15:00:00,19.215859,72.831718,Pm2.5,37.0,157.0,80.0,2026,3,13,15,Friday,120.0,N/A,Summer
India,Maharashtra,Sangli,"Vijay Nagar, Sangli - Mpcb",2026-03-13 15:00:00,16.5038,74.3623,Pm10,50.0,102.0,72.0,2026,3,13,15,Friday,52.0,N/A,Summer
India,Maharashtra,Sangli,"Vijay Nagar, Sangli - Mpcb",2026-03-13 15:00:00,16.5038,74.3623,So2,1.0,19.0,11.0,2026,3,13,15,Friday,18.0,N/A,Summer
India,Maharashtra,Solapur,"Dnyaneshwar Nagar, Solapur - Mpcb",2026-03-13 15:00:00,17.6336264,75.9132495,Pm10,87.0,143.0,116.0,2026,3,13,15,Friday,56.0,N/A,Summer
India,Maharashtra,Solapur,"Dnyaneshwar Nagar, Solapur - Mpcb",2026-03-13 15:00:00,17.6336264,75.9132495,Nh3,7.0,15.5,15.5,2026,3,13,15,Friday,8.5,N/A,Summer
India,Maharashtra,Solapur,"Dnyaneshwar Nagar, Solapur - Mpcb",2026-03-13 15:00:00,17.6336264,75.9132495,Co,8.0,61.0,20.0,2026,3,13,15,Friday,53.0,N/A,Summer
India,Maharashtra,Thane,"Kasarvadavali, Thane - Mpcb",2026-03-13 15:00:00,19.26777,72.97182,No2,21.0,66.0,36.0,2026,3,13,15,Friday,45.0,N/A,Summer
India,Maharashtra,Thane,"Upvan Fort, Thane - Mpcb",2026-03-13 15:00:00,19.222279,72.957979,Pm10,70.0,214.5,133.0,2026,3,13,15,Friday,144.5,N/A,Summer
India,Maharashtra,Thane,"Upvan Fort, Thane - Mpcb",2026-03-13 15:00:00,19.222279,72.957979,No2,14.0,85.0,40.0,2026,3,13,15,Friday,71.0,N/A,Summer
India,Maharashtra,Thane,"Upvan Fort, Thane - Mpcb",2026-03-13 15:00:00,19.222279,72.957979,Ozone,1.0,64.0,39.0,2026,3,13,15,Friday,63.0,N/A,Summer
India,Odisha,Baripada,"Meher Colony, Baripada - Ospcb",2026-03-13 15:00:00,21.941841,86.728318,Pm10,93.0,120.0,106.0,2026,3,13,15,Friday,27.0,N/A,Summer
India,Odisha,Baripada,"Meher Colony, Baripada - Ospcb",2026-03-13 15:00:00,21.941841,86.728318,No2,14.0,40.0,26.0,2026,3,13,15,Friday,26.0,N/A,Summer
India,Odisha,Baripada,"Meher Colony, Baripada - Ospcb",2026-03-13 15:00:00,21.941841,86.728318,So2,1.0,19.0,8.0,2026,3,13,15,Friday,18.0,N/A,Summer
India,Odisha,Bhubaneswar,"Lingraj Mandir, Bhubaneswar - Ospcb",2026-03-13 15:00:00,20.24079,85.836784,Pm2.5,25.0,120.0,62.0,2026,3,13,15,Friday,95.0,N/A,Summer
India,Odisha,Bhubaneswar,"Lingraj Mandir, Bhubaneswar - Ospcb",2026-03-13 15:00:00,20.24079,85.836784,Nh3,4.0,7.0,6.0,2026,3,13,15,Friday,3.0,N/A,Summer
India,Odisha,Brajrajnagar,"Gm Office, Brajrajnagar - Ospcb",2026-03-13 15:00:00,21.8004996,83.8396977,Pm10,28.0,214.5,146.0,2026,3,13,15,Friday,186.5,N/A,Summer
India,Nagaland,Kohima,"Pwd Junction, Kohima - Npcb",2026-03-13 15:00:00,25.6635413,94.0989878,So2,13.0,24.0,18.0,2026,3,13,15,Friday,11.0,N/A,Summer
India,Odisha,Angul,"Hakimapada, Angul - Ospcb",2026-03-13 15:00:00,20.832874,85.104082,Pm10,117.0,214.5,174.0,2026,3,13,15,Friday,97.5,N/A,Summer
India,Odisha,Balasore,"Kalidaspur, Balasore - Ospcb",2026-03-13 15:00:00,21.51161,86.89088,Pm10,58.0,121.0,90.0,2026,3,13,15,Friday,63.0,N/A,Summer
India,Odisha,Balasore,"Kalidaspur, Balasore - Ospcb",2026-03-13 15:00:00,21.51161,86.89088,Co,40.0,48.0,43.0,2026,3,13,15,Friday,8.0,N/A,Summer
India,Maharashtra,Pune,"Mhada Colony, Pune - Iitm",2026-03-13 15:00:00,18.57304,73.927715,Co,2.0,61.0,2.0,2026,3,13,15,Friday,59.0,N/A,Summer
India,Maharashtra,Pune,"Panchawati Pashan, Pune - Iitm",2026-03-13 15:00:00,18.536457,73.805454,Pm10,64.0,124.0,87.0,2026,3,13,15,Friday,60.0,N/A,Summer
India,Maharashtra,Pune,"Revenue Colony-Shivajinagar, Pune - Iitm",2026-03-13 15:00:00,18.530085,73.849598,Pm10,89.0,149.0,119.0,2026,3,13,15,Friday,60.0,N/A,Summer
India,Maharashtra,Pune,"Transport Nagar-Nigdi, Pune - Iitm",2026-03-13 15:00:00,18.664282,73.763966,Pm10,58.0,138.0,88.0,2026,3,13,15,Friday,80.0,N/A,Summer
India,Maharashtra,Pune,"Bhumkar Nagar, Pune - Iitm",2026-03-13 15:00:00,18.60577,73.749976,No2,30.0,85.0,69.0,2026,3,13,15,Friday,55.0,N/A,Summer
India,Maharashtra,Pune,"Bhumkar Nagar, Pune - Iitm",2026-03-13 15:00:00,18.60577,73.749976,Ozone,12.0,87.0,47.0,2026,3,13,15,Friday,75.0,N/A,Summer
India,Maharashtra,Pune,"Dhankawadi, Pune - Iitm",2026-03-13 15:00:00,18.459883,73.852193,Pm10,60.0,202.0,136.0,2026,3,13,15,Friday,142.0,N/A,Summer
India,Maharashtra,Pune,"Katraj Dairy, Pune - Mpcb",2026-03-13 15:00:00,18.45445,73.854155,No2,14.0,55.0,38.0,2026,3,13,15,Friday,41.0,N/A,Summer
India,Maharashtra,Pune,"Katraj Dairy, Pune - Mpcb",2026-03-13 15:00:00,18.45445,73.854155,Co,19.0,61.0,38.0,2026,3,13,15,Friday,42.0,N/A,Summer
India,Odisha,Brajrajnagar,"Gm Office, Brajrajnagar - Ospcb",2026-03-13 15:00:00,21.8004996,83.8396977,Co,2.0,61.0,30.0,2026,3,13,15,Friday,59.0,N/A,Summer
India,Odisha,Byasanagar,"Ferro Chrome Colony, Byasanagar - Ospcb",2026-03-13 15:00:00,20.94185,86.1151,Pm2.5,20.0,88.0,56.0,2026,3,13,15,Friday,68.0,N/A,Summer
India,Maharashtra,Ulhasnagar,"Sidhi Vinayak Nagar, Ulhasnagar - Mpcb",2026-03-13 15:00:00,19.235581,73.159121,No2,13.0,37.0,24.0,2026,3,13,15,Friday,24.0,N/A,Summer
India,Meghalaya,Shillong,"Jn Stadium, Shillong - Meghalaya Pcb",2026-03-13 15:00:00,25.5803419,91.8942571,Co,18.0,61.0,29.0,2026,3,13,15,Friday,43.0,N/A,Summer
India,Maharashtra,Virar,"Bolinj, Virar - Mpcb",2026-03-13 15:00:00,19.445821,72.7988231,Co,16.0,61.0,44.0,2026,3,13,15,Friday,45.0,N/A,Summer
India,Odisha,Suakati,"Omc Colony, Suakati - Ospcb",2026-03-13 15:00:00,21.606865,85.510538,No2,15.0,15.0,15.0,2026,3,13,15,Friday,0.0,N/A,Summer
India,Odisha,Suakati,"Omc Colony, Suakati - Ospcb",2026-03-13 15:00:00,21.606865,85.510538,Co,16.0,35.0,29.0,2026,3,13,15,Friday,19.0,N/A,Summer
India,Odisha,Talcher,"Talcher Coalfields,Talcher - Ospcb",2026-03-13 15:00:00,20.9360711,85.1707021,Pm2.5,6.0,213.0,111.0,2026,3,13,15,Friday,207.0,N/A,Summer
India,Odisha,Talcher,"Talcher Coalfields,Talcher - Ospcb",2026-03-13 15:00:00,20.9360711,85.1707021,So2,1.0,21.0,4.0,2026,3,13,15,Friday,20.0,N/A,Summer
India,Odisha,Tensa,"Barsua Iron Ore Mines, Tensa - Ospcb",2026-03-13 15:00:00,21.869985,85.167016,Nh3,4.0,7.0,5.0,2026,3,13,15,Friday,3.0,N/A,Summer
India,Odisha,Tensa,"Barsua Iron Ore Mines, Tensa - Ospcb",2026-03-13 15:00:00,21.869985,85.167016,So2,1.0,40.5,29.0,2026,3,13,15,Friday,39.5,N/A,Summer
India,Puducherry,Puducherry,"Jawahar Nagar, Puducherry - Ppcc",2026-03-13 15:00:00,11.9309,79.8027,Nh3,2.0,5.0,3.0,2026,3,13,15,Friday,3.0,N/A,Summer
India,Puducherry,Puducherry,"Jawahar Nagar, Puducherry - Ppcc",2026-03-13 15:00:00,11.9309,79.8027,So2,4.0,12.0,7.0,2026,3,13,15,Friday,8.0,N/A,Summer
India,Odisha,Byasanagar,"Ferro Chrome Colony, Byasanagar - Ospcb",2026-03-13 15:00:00,20.94185,86.1151,Ozone,13.0,114.0,114.0,2026,3,13,15,Friday,101.0,N/A,Summer
India,Odisha,Cuttack,"Cda Area, Cuttack - Ospcb",2026-03-13 15:00:00,20.48891,85.84768,Pm2.5,33.0,147.0,70.0,2026,3,13,15,Friday,114.0,N/A,Summer
India,Odisha,Cuttack,"Cda Area, Cuttack - Ospcb",2026-03-13 15:00:00,20.48891,85.84768,Nh3,3.0,7.0,4.0,2026,3,13,15,Friday,4.0,N/A,Summer
India,Odisha,Nayagarh,"Dabuna, Nayagarh - Ospcb",2026-03-13 15:00:00,21.847279,85.416905,Ozone,11.0,44.0,25.0,2026,3,13,15,Friday,33.0,N/A,Summer
India,Odisha,Rairangpur,"Divisional Forest Office, Rairangpur - Ospcb",2026-03-13 15:00:00,22.265816,86.174829,Pm2.5,37.0,157.0,80.0,2026,3,13,15,Friday,120.0,N/A,Summer
India,Odisha,Rairangpur,"Divisional Forest Office, Rairangpur - Ospcb",2026-03-13 15:00:00,22.265816,86.174829,No2,14.0,40.0,26.0,2026,3,13,15,Friday,26.0,N/A,Summer
India,Odisha,Rairangpur,"Divisional Forest Office, Rairangpur - Ospcb",2026-03-13 15:00:00,22.265816,86.174829,Nh3,4.0,7.0,5.0,2026,3,13,15,Friday,3.0,N/A,Summer
India,Odisha,Rourkela,"Fertilizer Township, Rourkela - Ospcb",2026-03-13 15:00:00,22.18972222,84.86277778,Pm2.5,73.0,88.0,78.0,2026,3,13,15,Friday,15.0,N/A,Summer
India,Odisha,Rourkela,"Sector-2, Rourkela - Ospcb",2026-03-13 15:00:00,22.245,84.88111111,Co,33.0,52.0,48.0,2026,3,13,15,Friday,19.0,N/A,Summer
India,Odisha,Nayagarh,"Dabuna, Nayagarh - Ospcb",2026-03-13 15:00:00,21.847279,85.416905,Pm2.5,42.0,213.0,171.0,2026,3,13,15,Friday,171.0,N/A,Summer
India,Odisha,Nayagarh,"Dabuna, Nayagarh - Ospcb",2026-03-13 15:00:00,21.847279,85.416905,No2,8.0,12.0,8.0,2026,3,13,15,Friday,4.0,N/A,Summer
India,Odisha,Keonjhar,"Jagamohanpur, Keonjhar - Ospcb",2026-03-13 15:00:00,21.6439,85.599355,Co,18.0,40.0,22.0,2026,3,13,15,Friday,22.0,N/A,Summer
India,Odisha,Keonjhar,"Jagamohanpur, Keonjhar - Ospcb",2026-03-13 15:00:00,21.6439,85.599355,Nh3,5.0,5.0,5.0,2026,3,13,15,Friday,0.0,N/A,Summer
India,Odisha,Nayagarh,"Dabuna, Nayagarh - Ospcb",2026-03-13 15:00:00,21.847279,85.416905,Nh3,2.0,7.0,6.0,2026,3,13,15,Friday,5.0,N/A,Summer
India,Rajasthan,Jaipur,"Police Commissionerate, Jaipur - Rspcb",2026-03-13 15:00:00,26.9164092,75.7994901,Pm10,54.0,119.0,92.0,2026,3,13,15,Friday,65.0,N/A,Summer
India,Rajasthan,Jaipur,"Riico Sitapura, Jaipur - Rspcb",2026-03-13 15:00:00,26.786682,75.827928,No2,83.0,85.0,85.0,2026,3,13,15,Friday,2.0,N/A,Summer
India,Rajasthan,Jaipur,"Sector-2 Murlipura, Jaipur - Rspcb",2026-03-13 15:00:00,26.960669,75.771817,Pm2.5,35.0,213.0,191.0,2026,3,13,15,Friday,178.0,N/A,Summer
India,Rajasthan,Jaipur,"Sector-2 Murlipura, Jaipur - Rspcb",2026-03-13 15:00:00,26.960669,75.771817,No2,15.0,85.0,64.0,2026,3,13,15,Friday,70.0,N/A,Summer
India,Rajasthan,Jaipur,"Sector-2 Murlipura, Jaipur - Rspcb",2026-03-13 15:00:00,26.960669,75.771817,Ozone,3.0,76.0,51.0,2026,3,13,15,Friday,73.0,N/A,Summer
India,Rajasthan,Jaipur,"Shastri Nagar, Jaipur - Rspcb",2026-03-13 15:00:00,26.9502929,75.730943,Pm10,93.0,193.0,130.0,2026,3,13,15,Friday,100.0,N/A,Summer
India,Rajasthan,Bikaner,"Mm Ground, Bikaner - Rspcb",2026-03-13 15:00:00,28.018792,73.292658,No2,8.0,44.0,26.0,2026,3,13,15,Friday,36.0,N/A,Summer
India,Rajasthan,Bikaner,"Mm Ground, Bikaner - Rspcb",2026-03-13 15:00:00,28.018792,73.292658,So2,3.0,13.0,7.0,2026,3,13,15,Friday,10.0,N/A,Summer
India,Rajasthan,Bundi,"New Colony, Bundi - Rspcb",2026-03-13 15:00:00,25.435774,75.644272,Pm10,33.0,128.0,72.0,2026,3,13,15,Friday,95.0,N/A,Summer
India,Rajasthan,Chittorgarh,"Shastri Nagar, Chittorgarh - Rspcb",2026-03-13 15:00:00,24.892047,74.623527,Pm10,30.0,168.0,92.0,2026,3,13,15,Friday,138.0,N/A,Summer
India,Rajasthan,Chittorgarh,"Shastri Nagar, Chittorgarh - Rspcb",2026-03-13 15:00:00,24.892047,74.623527,Nh3,6.0,15.5,12.0,2026,3,13,15,Friday,9.5,N/A,Summer
India,Rajasthan,Chittorgarh,"Shastri Nagar, Chittorgarh - Rspcb",2026-03-13 15:00:00,24.892047,74.623527,So2,2.0,40.5,10.0,2026,3,13,15,Friday,38.5,N/A,Summer
India,Rajasthan,Bharatpur,"Krishna Nagar, Bharatpur - Rspcb",2026-03-13 15:00:00,27.215415,77.50873,Ozone,7.0,114.0,93.0,2026,3,13,15,Friday,107.0,N/A,Summer
India,Rajasthan,Bhilwara,"Pratap Nagar, Bhilwara - Rspcb",2026-03-13 15:00:00,25.339605,74.618883,Pm10,52.0,214.5,152.0,2026,3,13,15,Friday,162.5,N/A,Summer
India,Rajasthan,Bhilwara,"Pratap Nagar, Bhilwara - Rspcb",2026-03-13 15:00:00,25.339605,74.618883,No2,10.0,79.0,34.0,2026,3,13,15,Friday,69.0,N/A,Summer
India,Rajasthan,Bhilwara,"Pratap Nagar, Bhilwara - Rspcb",2026-03-13 15:00:00,25.339605,74.618883,Nh3,7.0,15.5,11.0,2026,3,13,15,Friday,8.5,N/A,Summer
India,Rajasthan,Bhiwadi,"Riico Ind. Area Iii, Bhiwadi - Rspcb",2026-03-13 15:00:00,28.194909,76.862296,Pm10,66.0,214.5,214.5,2026,3,13,15,Friday,148.5,N/A,Summer
India,Punjab,Khanna,"Kalal Majra, Khanna - Ppcb",2026-03-13 15:00:00,30.736056,76.209694,Nh3,7.0,7.0,7.0,2026,3,13,15,Friday,0.0,N/A,Summer
India,Punjab,Khanna,"Kalal Majra, Khanna - Ppcb",2026-03-13 15:00:00,30.736056,76.209694,Ozone,19.0,41.0,35.0,2026,3,13,15,Friday,22.0,N/A,Summer
India,Punjab,Mandi Gobindgarh,"Rimt University, Mandi Gobindgarh - Ppcb",2026-03-13 15:00:00,30.649961,76.331442,Nh3,6.0,6.0,6.0,2026,3,13,15,Friday,0.0,N/A,Summer
India,Punjab,Rupnagar,"Ratanpura, Rupnagar - Ambuja Cements",2026-03-13 15:00:00,31.0325454,76.5623046,Co,20.0,32.0,28.0,2026,3,13,15,Friday,12.0,N/A,Summer
India,Rajasthan,Hanumangarh,"Housing Board, Hanumangarh - Rspcb",2026-03-13 15:00:00,29.61075,74.283608,Pm2.5,9.0,85.0,36.0,2026,3,13,15,Friday,76.0,N/A,Summer
India,Rajasthan,Hanumangarh,"Housing Board, Hanumangarh - Rspcb",2026-03-13 15:00:00,29.61075,74.283608,Pm10,77.0,214.5,135.0,2026,3,13,15,Friday,137.5,N/A,Summer
India,Rajasthan,Hanumangarh,"Housing Board, Hanumangarh - Rspcb",2026-03-13 15:00:00,29.61075,74.283608,So2,7.0,33.0,21.0,2026,3,13,15,Friday,26.0,N/A,Summer
India,Rajasthan,Jaipur,"Adarsh Nagar, Jaipur - Rspcb",2026-03-13 15:00:00,26.902909,75.836858,No2,20.0,84.0,44.0,2026,3,13,15,Friday,64.0,N/A,Summer
India,Rajasthan,Ajmer,"Civil Lines,  Ajmer - Rspcb",2026-03-13 15:00:00,26.470859,74.646594,No2,24.0,35.0,30.0,2026,3,13,15,Friday,11.0,N/A,Summer
India,Rajasthan,Baran,"Bamboliya, Baran - Rspcb",2026-03-13 15:00:00,25.106006,76.469948,Ozone,9.0,114.0,114.0,2026,3,13,15,Friday,105.0,N/A,Summer
India,Rajasthan,Barmer,"Railway Colony, Barmer - Rspcb",2026-03-13 15:00:00,25.747299,71.393989,Pm10,76.0,165.0,122.0,2026,3,13,15,Friday,89.0,N/A,Summer
India,Rajasthan,Dungarpur,"Bhoiwada, Dungarpur - Rspcb",2026-03-13 15:00:00,23.837789,73.714926,Pm2.5,25.0,107.0,52.0,2026,3,13,15,Friday,82.0,N/A,Summer
India,Rajasthan,Dungarpur,"Bhoiwada, Dungarpur - Rspcb",2026-03-13 15:00:00,23.837789,73.714926,No2,12.0,34.0,22.0,2026,3,13,15,Friday,22.0,N/A,Summer
India,Rajasthan,Dausa,"Khatikan Mohalla, Dausa - Rspcb",2026-03-13 15:00:00,26.895552,76.334753,Pm10,40.0,173.0,95.0,2026,3,13,15,Friday,133.0,N/A,Summer
India,Rajasthan,Churu,"Subash Chowk, Churu - Rspcb",2026-03-13 15:00:00,28.296139,74.961696,Pm10,75.0,174.0,136.0,2026,3,13,15,Friday,99.0,N/A,Summer
India,Rajasthan,Kota,"Shrinath Puram, Kota - Rspcb",2026-03-13 15:00:00,25.14389,75.821256,Pm10,48.0,116.0,73.0,2026,3,13,15,Friday,68.0,N/A,Summer
India,Rajasthan,Kota,"Shrinath Puram, Kota - Rspcb",2026-03-13 15:00:00,25.14389,75.821256,No2,6.0,13.0,9.0,2026,3,13,15,Friday,7.0,N/A,Summer
India,Rajasthan,Nagaur,"Karni Colony, Nagaur - Rspcb",2026-03-13 15:00:00,27.213494,73.734444,Nh3,6.0,15.5,10.0,2026,3,13,15,Friday,9.5,N/A,Summer
India,Rajasthan,Pali,"Indira Colony Vistar, Pali - Rspcb",2026-03-13 15:00:00,25.771061,73.340227,No2,10.0,37.0,28.0,2026,3,13,15,Friday,27.0,N/A,Summer
India,Rajasthan,Pali,"Indira Colony Vistar, Pali - Rspcb",2026-03-13 15:00:00,25.771061,73.340227,Ozone,21.0,68.0,49.0,2026,3,13,15,Friday,47.0,N/A,Summer
India,Rajasthan,Pratapgarh,"Pragati Nagar, Pratapgarh - Rspcb",2026-03-13 15:00:00,24.041198,74.780702,So2,3.0,10.0,6.0,2026,3,13,15,Friday,7.0,N/A,Summer
India,Rajasthan,Rajsamand,"Dhoinda, Rajsamand - Rspcb",2026-03-13 15:00:00,25.03636,73.883502,Nh3,8.0,15.5,14.0,2026,3,13,15,Friday,7.5,N/A,Summer
India,Rajasthan,Rajsamand,"Dhoinda, Rajsamand - Rspcb",2026-03-13 15:00:00,25.03636,73.883502,So2,2.0,10.0,5.0,2026,3,13,15,Friday,8.0,N/A,Summer
India,Rajasthan,Rajsamand,"Dhoinda, Rajsamand - Rspcb",2026-03-13 15:00:00,25.03636,73.883502,Co,2.0,58.0,34.0,2026,3,13,15,Friday,56.0,N/A,Summer
India,Rajasthan,Jhunjhunu,"Indra Nagar, Jhunjhunu - Rspcb",2026-03-13 15:00:00,28.108988,75.386577,Co,15.0,42.0,30.0,2026,3,13,15,Friday,27.0,N/A,Summer
India,Rajasthan,Jodhpur,"Collectorate, Jodhpur - Rspcb",2026-03-13 15:00:00,26.268249,73.0193853,Pm2.5,35.0,138.0,61.0,2026,3,13,15,Friday,103.0,N/A,Summer
India,Rajasthan,Jodhpur,"Collectorate, Jodhpur - Rspcb",2026-03-13 15:00:00,26.268249,73.0193853,Pm10,45.0,117.0,68.0,2026,3,13,15,Friday,72.0,N/A,Summer
India,Rajasthan,Jodhpur,"Collectorate, Jodhpur - Rspcb",2026-03-13 15:00:00,26.268249,73.0193853,No2,18.0,45.0,26.0,2026,3,13,15,Friday,27.0,N/A,Summer
India,Rajasthan,Jodhpur,"Digari Kalan, Jodhpur - Rspcb",2026-03-13 15:00:00,26.29581,73.082283,Co,14.0,61.0,22.0,2026,3,13,15,Friday,47.0,N/A,Summer
India,Rajasthan,Jodhpur,"Jhalamand, Jodhpur - Rspcb",2026-03-13 15:00:00,26.215415,73.070156,Ozone,1.0,62.0,41.0,2026,3,13,15,Friday,61.0,N/A,Summer
India,Rajasthan,Jodhpur,"Mandor, Jodhpur - Rspcb",2026-03-13 15:00:00,26.358805,73.047444,Nh3,2.0,8.0,4.0,2026,3,13,15,Friday,6.0,N/A,Summer
India,Rajasthan,Karauli,"Satyawati Vihar, Karauli - Rspcb",2026-03-13 15:00:00,26.506177,77.025989,Pm10,66.0,167.0,112.0,2026,3,13,15,Friday,101.0,N/A,Summer
India,Rajasthan,Kota,"Dhanmandi, Kota - Rspcb",2026-03-13 15:00:00,25.16409,75.858137,Pm10,44.0,119.0,85.0,2026,3,13,15,Friday,75.0,N/A,Summer
India,Rajasthan,Kota,"Nayapura, Kota - Rspcb",2026-03-13 15:00:00,25.196024,75.855668,Nh3,2.0,15.0,5.0,2026,3,13,15,Friday,13.0,N/A,Summer
India,Rajasthan,Kota,"Nayapura, Kota - Rspcb",2026-03-13 15:00:00,25.196024,75.855668,So2,6.0,22.0,12.0,2026,3,13,15,Friday,16.0,N/A,Summer
India,Rajasthan,Jaisalmer,"Sadar Bazar, Jaisalmer - Rspcb",2026-03-13 15:00:00,26.912329,70.909168,Ozone,8.0,71.0,61.0,2026,3,13,15,Friday,63.0,N/A,Summer
India,Rajasthan,Jalore,"Mudtra Sili, Jalore - Rspcb",2026-03-13 15:00:00,25.344694,72.626208,Nh3,2.0,5.0,4.0,2026,3,13,15,Friday,3.0,N/A,Summer
India,Rajasthan,Jalore,"Mudtra Sili, Jalore - Rspcb",2026-03-13 15:00:00,25.344694,72.626208,Ozone,12.0,108.0,62.0,2026,3,13,15,Friday,96.0,N/A,Summer
India,Rajasthan,Jhalawar,"Rajlaxmi Nagar, Jhalawar - Rspcb",2026-03-13 15:00:00,24.588397,76.172782,So2,8.0,40.5,17.0,2026,3,13,15,Friday,32.5,N/A,Summer
India,Rajasthan,Jhalawar,"Rajlaxmi Nagar, Jhalawar - Rspcb",2026-03-13 15:00:00,24.588397,76.172782,Ozone,1.0,114.0,79.0,2026,3,13,15,Friday,113.0,N/A,Summer
India,Rajasthan,Sawai Madhopur,"Sahu Nagar, Sawai Madhopur - Rspcb",2026-03-13 15:00:00,26.031443,76.359327,Pm10,79.0,214.5,143.0,2026,3,13,15,Friday,135.5,N/A,Summer
India,Rajasthan,Sikar,"Radhakishan Pura, Sikar - Rspcb",2026-03-13 15:00:00,27.608912,75.153302,No2,8.0,85.0,31.0,2026,3,13,15,Friday,77.0,N/A,Summer
India,Rajasthan,Sikar,"Radhakishan Pura, Sikar - Rspcb",2026-03-13 15:00:00,27.608912,75.153302,So2,1.0,10.0,4.0,2026,3,13,15,Friday,9.0,N/A,Summer
India,Sikkim,Gangtok,"Zero Point Gici, Gangtok - Sspcb",2026-03-13 15:00:00,27.33853,88.614099,Nh3,1.0,1.0,1.0,2026,3,13,15,Friday,0.0,N/A,Summer
India,Sikkim,Gangtok,"Zero Point Gici, Gangtok - Sspcb",2026-03-13 15:00:00,27.33853,88.614099,So2,1.0,1.0,1.0,2026,3,13,15,Friday,0.0,N/A,Summer
India,Tamilnadu,Chennai,"Arumbakkam, Chennai - Tnpcb",2026-03-13 15:00:00,13.0664,80.2112,Nh3,2.0,2.0,2.0,2026,3,13,15,Friday,0.0,N/A,Summer
India,Tamilnadu,Chennai,"Kodungaiyur, Chennai - Tnpcb",2026-03-13 15:00:00,13.1278,80.2642,Ozone,25.0,33.0,30.0,2026,3,13,15,Friday,8.0,N/A,Summer
India,Tamilnadu,Chennai,"Manali Village, Chennai - Tnpcb",2026-03-13 15:00:00,13.1662,80.2584,Co,22.0,30.0,28.0,2026,3,13,15,Friday,8.0,N/A,Summer
India,Rajasthan,Udaipur,"Ashok Nagar, Udaipur - Rspcb",2026-03-13 15:00:00,24.5886166,73.6321397,Pm10,90.0,147.0,118.0,2026,3,13,15,Friday,57.0,N/A,Summer
India,Tamilnadu,Chennai,"Kodungaiyur, Chennai - Tnpcb",2026-03-13 15:00:00,13.1278,80.2642,Pm2.5,27.0,67.0,46.0,2026,3,13,15,Friday,40.0,N/A,Summer
India,Tamilnadu,Perundurai,"Sipcot Industrial Park, Perundurai - Tnpcb",2026-03-13 15:00:00,11.258242,77.552761,Co,42.0,47.0,45.0,2026,3,13,15,Friday,5.0,N/A,Summer
India,Tamilnadu,Perundurai,"Sipcot Industrial Park, Perundurai - Tnpcb",2026-03-13 15:00:00,11.258242,77.552761,Ozone,14.0,32.0,30.0,2026,3,13,15,Friday,18.0,N/A,Summer
India,Telangana,Hyderabad,"Central University, Hyderabad - Tspcb",2026-03-13 15:00:00,17.460103,78.334361,So2,6.0,18.0,12.0,2026,3,13,15,Friday,12.0,N/A,Summer
India,Telangana,Hyderabad,"Ecil Kapra, Hyderabad - Tspcb",2026-03-13 15:00:00,17.470431,78.566959,Pm10,61.0,152.0,106.0,2026,3,13,15,Friday,91.0,N/A,Summer
India,Telangana,Hyderabad,"Ecil Kapra, Hyderabad - Tspcb",2026-03-13 15:00:00,17.470431,78.566959,No2,14.0,40.0,26.0,2026,3,13,15,Friday,26.0,N/A,Summer
India,Telangana,Hyderabad,"Ecil Kapra, Hyderabad - Tspcb",2026-03-13 15:00:00,17.470431,78.566959,Nh3,4.0,7.0,5.0,2026,3,13,15,Friday,3.0,N/A,Summer
India,Telangana,Hyderabad,"Icrisat Patancheru, Hyderabad - Tspcb",2026-03-13 15:00:00,17.5184,78.278777,So2,3.0,24.0,10.0,2026,3,13,15,Friday,21.0,N/A,Summer
India,Telangana,Hyderabad,"Ida Pashamylaram, Hyderabad - Tspcb",2026-03-13 15:00:00,17.5316895,78.218939,Pm2.5,45.0,187.0,87.0,2026,3,13,15,Friday,142.0,N/A,Summer
India,Telangana,Hyderabad,"Ida Pashamylaram, Hyderabad - Tspcb",2026-03-13 15:00:00,17.5316895,78.218939,Pm10,34.0,138.0,62.0,2026,3,13,15,Friday,104.0,N/A,Summer
India,Telangana,Hyderabad,"Ramachandrapuram, Hyderabad - Tspcb",2026-03-13 15:00:00,17.528544,78.286195,Co,18.0,49.0,25.0,2026,3,13,15,Friday,31.0,N/A,Summer
India,Telangana,Hyderabad,"Somajiguda, Hyderabad - Tspcb",2026-03-13 15:00:00,17.417094,78.457437,No2,12.0,19.0,17.0,2026,3,13,15,Friday,7.0,N/A,Summer
India,Telangana,Hyderabad,"Zoo Park, Hyderabad - Tspcb",2026-03-13 15:00:00,17.349694,78.451437,Pm10,98.0,158.0,118.0,2026,3,13,15,Friday,60.0,N/A,Summer
India,Telangana,Hyderabad,"Zoo Park, Hyderabad - Tspcb",2026-03-13 15:00:00,17.349694,78.451437,Ozone,22.0,26.0,24.0,2026,3,13,15,Friday,4.0,N/A,Summer
India,Tripura,Agartala,"Bardowali, Agartala - Tripura Spcb",2026-03-13 15:00:00,23.8175497,91.2726974,Pm2.5,76.0,184.0,120.0,2026,3,13,15,Friday,108.0,N/A,Summer
India,Uttar Pradesh,Agra,"Manoharpur, Agra - Uppcb",2026-03-13 15:00:00,27.23711,78.01936,Pm10,13.0,214.5,158.0,2026,3,13,15,Friday,201.5,N/A,Summer
India,Uttar Pradesh,Agra,"Manoharpur, Agra - Uppcb",2026-03-13 15:00:00,27.23711,78.01936,No2,20.0,22.0,20.0,2026,3,13,15,Friday,2.0,N/A,Summer
India,Uttar Pradesh,Agra,"Manoharpur, Agra - Uppcb",2026-03-13 15:00:00,27.23711,78.01936,Co,16.0,26.0,16.0,2026,3,13,15,Friday,10.0,N/A,Summer
India,Uttar Pradesh,Agra,"Rohta, Agra - Uppcb",2026-03-13 15:00:00,27.106972,78.000111,Co,10.0,22.0,19.0,2026,3,13,15,Friday,12.0,N/A,Summer
India,Uttar Pradesh,Agra,"Rohta, Agra - Uppcb",2026-03-13 15:00:00,27.106972,78.000111,Ozone,10.0,14.0,12.0,2026,3,13,15,Friday,4.0,N/A,Summer
India,Uttar Pradesh,Agra,"Sanjay Palace, Agra - Uppcb",2026-03-13 15:00:00,27.19865833,78.00598056,Pm2.5,38.0,213.0,172.0,2026,3,13,15,Friday,175.0,N/A,Summer
India,Tamilnadu,Chennai,"Perungudi, Chennai - Tnpcb",2026-03-13 15:00:00,12.9533,80.2357,Pm10,37.0,103.0,67.0,2026,3,13,15,Friday,66.0,N/A,Summer
India,Tamilnadu,Chennai,"Perungudi, Chennai - Tnpcb",2026-03-13 15:00:00,12.9533,80.2357,No2,2.0,11.0,5.0,2026,3,13,15,Friday,9.0,N/A,Summer
India,Tamilnadu,Chennai,"Royapuram, Chennai - Tnpcb",2026-03-13 15:00:00,13.1036,80.2909,Nh3,4.0,5.0,4.0,2026,3,13,15,Friday,1.0,N/A,Summer
India,Tamilnadu,Coimbatore,"Psg College Of Arts And Science, Coimbatore - Tnpcb",2026-03-13 15:00:00,11.0328,77.0349,Pm2.5,35.0,90.0,65.0,2026,3,13,15,Friday,55.0,N/A,Summer
India,Tamilnadu,Coimbatore,"Psg College Of Arts And Science, Coimbatore - Tnpcb",2026-03-13 15:00:00,11.0328,77.0349,Pm10,28.0,69.0,51.0,2026,3,13,15,Friday,41.0,N/A,Summer
India,Telangana,Hyderabad,"Ida Pashamylaram, Hyderabad - Tspcb",2026-03-13 15:00:00,17.5316895,78.218939,So2,1.0,40.5,21.0,2026,3,13,15,Friday,39.5,N/A,Summer
India,Telangana,Hyderabad,"Ida Pashamylaram, Hyderabad - Tspcb",2026-03-13 15:00:00,17.5316895,78.218939,Co,21.0,61.0,37.0,2026,3,13,15,Friday,40.0,N/A,Summer
India,Telangana,Hyderabad,"New Malakpet, Hyderabad - Tspcb",2026-03-13 15:00:00,17.37206,78.50864,So2,7.0,21.0,13.0,2026,3,13,15,Friday,14.0,N/A,Summer
India,Telangana,Hyderabad,"New Malakpet, Hyderabad - Tspcb",2026-03-13 15:00:00,17.37206,78.50864,Co,24.0,46.0,39.0,2026,3,13,15,Friday,22.0,N/A,Summer
India,Telangana,Hyderabad,"Kompally Municipal Office, Hyderabad - Tspcb",2026-03-13 15:00:00,17.544899,78.486949,Co,6.0,61.0,30.0,2026,3,13,15,Friday,55.0,N/A,Summer
India,Uttar Pradesh,Agra,"Manoharpur, Agra - Uppcb",2026-03-13 15:00:00,27.23711,78.01936,Pm2.5,19.0,142.0,68.0,2026,3,13,15,Friday,123.0,N/A,Summer
India,Uttar Pradesh,Ghaziabad,"Vasundhara, Ghaziabad - Uppcb",2026-03-13 15:00:00,28.6603346,77.3572563,Ozone,5.0,114.0,30.0,2026,3,13,15,Friday,109.0,N/A,Summer
India,Uttar Pradesh,Gorakhpur,"Madan Mohan Malaviya University Of Technology, Gorakhpur - Uppcb",2026-03-13 15:00:00,26.730136,83.433859,No2,11.0,12.0,11.0,2026,3,13,15,Friday,1.0,N/A,Summer
India,Uttar Pradesh,Gorakhpur,"Madan Mohan Malaviya University Of Technology, Gorakhpur - Uppcb",2026-03-13 15:00:00,26.730136,83.433859,Co,4.0,5.0,4.0,2026,3,13,15,Friday,1.0,N/A,Summer
India,Uttar Pradesh,Greater Noida,"Knowledge Park - Iii, Greater Noida - Uppcb",2026-03-13 15:00:00,28.47272,77.482,Pm2.5,24.0,193.0,93.0,2026,3,13,15,Friday,169.0,N/A,Summer
India,Uttar Pradesh,Greater Noida,"Knowledge Park - Iii, Greater Noida - Uppcb",2026-03-13 15:00:00,28.47272,77.482,No2,16.0,85.0,60.0,2026,3,13,15,Friday,69.0,N/A,Summer
India,Uttar Pradesh,Greater Noida,"Knowledge Park - Iii, Greater Noida - Uppcb",2026-03-13 15:00:00,28.47272,77.482,Nh3,6.0,13.0,10.0,2026,3,13,15,Friday,7.0,N/A,Summer
India,Uttar Pradesh,Greater Noida,"Knowledge Park - V, Greater Noida - Uppcb",2026-03-13 15:00:00,28.557054,77.453663,Pm2.5,54.0,213.0,179.0,2026,3,13,15,Friday,159.0,N/A,Summer
India,Uttar Pradesh,Greater Noida,"Knowledge Park - V, Greater Noida - Uppcb",2026-03-13 15:00:00,28.557054,77.453663,Nh3,3.0,15.5,6.0,2026,3,13,15,Friday,12.5,N/A,Summer
India,Uttar Pradesh,Hapur,"Anand Vihar, Hapur - Uppcb",2026-03-13 15:00:00,28.725645,77.749675,So2,16.0,40.5,40.5,2026,3,13,15,Friday,24.5,N/A,Summer
India,Uttar Pradesh,Hapur,"Anand Vihar, Hapur - Uppcb",2026-03-13 15:00:00,28.725645,77.749675,Ozone,14.0,77.0,43.0,2026,3,13,15,Friday,63.0,N/A,Summer
India,Uttar Pradesh,Kanpur,"Fti Kidwai Nagar, Kanpur - Uppcb",2026-03-13 15:00:00,26.428282,80.327067,Pm2.5,51.0,131.0,80.0,2026,3,13,15,Friday,80.0,N/A,Summer
India,Uttar Pradesh,Kanpur,"Fti Kidwai Nagar, Kanpur - Uppcb",2026-03-13 15:00:00,26.428282,80.327067,So2,21.0,26.0,23.0,2026,3,13,15,Friday,5.0,N/A,Summer
India,Uttar Pradesh,Kanpur,"Fti Kidwai Nagar, Kanpur - Uppcb",2026-03-13 15:00:00,26.428282,80.327067,Co,33.0,44.0,36.0,2026,3,13,15,Friday,11.0,N/A,Summer
India,Uttar Pradesh,Kanpur,"Nsi Kalyanpur, Kanpur - Uppcb",2026-03-13 15:00:00,26.509954,80.249612,No2,24.0,25.0,25.0,2026,3,13,15,Friday,1.0,N/A,Summer
India,Uttar Pradesh,Kanpur,"Nsi Kalyanpur, Kanpur - Uppcb",2026-03-13 15:00:00,26.509954,80.249612,Ozone,15.0,17.0,15.0,2026,3,13,15,Friday,2.0,N/A,Summer
India,Uttar Pradesh,Kanpur,"Nehru Nagar, Kanpur - Uppcb",2026-03-13 15:00:00,26.4703136,80.3229863,Pm2.5,29.0,213.0,112.0,2026,3,13,15,Friday,184.0,N/A,Summer
India,Uttar Pradesh,Bareilly,"Civil Lines, Bareilly - Uppcb",2026-03-13 15:00:00,28.359581,79.414455,So2,40.5,40.5,40.5,2026,3,13,15,Friday,0.0,N/A,Summer
India,Uttar Pradesh,Bareilly,"Rajendra Nagar, Bareilly - Uppcb",2026-03-13 15:00:00,28.38910936,79.42963708,Pm10,62.0,121.0,99.0,2026,3,13,15,Friday,59.0,N/A,Summer
India,Uttar Pradesh,Bareilly,"Rajendra Nagar, Bareilly - Uppcb",2026-03-13 15:00:00,28.38910936,79.42963708,So2,40.0,40.5,40.5,2026,3,13,15,Friday,0.5,N/A,Summer
India,Uttar Pradesh,Bulandshahr,"Yamunapuram, Bulandshahr - Uppcb",2026-03-13 15:00:00,28.406963,77.849831,Pm10,134.0,214.5,183.0,2026,3,13,15,Friday,80.5,N/A,Summer
India,Uttar Pradesh,Bulandshahr,"Yamunapuram, Bulandshahr - Uppcb",2026-03-13 15:00:00,28.406963,77.849831,Ozone,1.0,61.0,38.0,2026,3,13,15,Friday,60.0,N/A,Summer
India,Uttar Pradesh,Firozabad,"Nagla Bhau, Firozabad - Uppcb",2026-03-13 15:00:00,27.168897,78.37696,Pm10,57.0,174.0,106.0,2026,3,13,15,Friday,117.0,N/A,Summer
India,Uttar Pradesh,Firozabad,"Nagla Bhau, Firozabad - Uppcb",2026-03-13 15:00:00,27.168897,78.37696,So2,2.0,40.5,16.0,2026,3,13,15,Friday,38.5,N/A,Summer
India,Uttar Pradesh,Agra,"Sanjay Palace, Agra - Uppcb",2026-03-13 15:00:00,27.19865833,78.00598056,Pm10,101.0,153.0,126.0,2026,3,13,15,Friday,52.0,N/A,Summer
India,Uttar Pradesh,Agra,"Sanjay Palace, Agra - Uppcb",2026-03-13 15:00:00,27.19865833,78.00598056,So2,17.0,19.0,18.0,2026,3,13,15,Friday,2.0,N/A,Summer
India,Uttar Pradesh,Agra,"Sector-3B Avas Vikas Colony, Agra - Uppcb",2026-03-13 15:00:00,27.19412,77.96237,Nh3,8.0,11.0,9.0,2026,3,13,15,Friday,3.0,N/A,Summer
India,Uttar Pradesh,Agra,"Shastripuram, Agra - Uppcb",2026-03-13 15:00:00,27.19862,77.92066,Pm2.5,15.0,132.0,59.0,2026,3,13,15,Friday,117.0,N/A,Summer
India,Uttar Pradesh,Agra,"Shastripuram, Agra - Uppcb",2026-03-13 15:00:00,27.19862,77.92066,Nh3,3.0,3.0,3.0,2026,3,13,15,Friday,0.0,N/A,Summer
India,Uttar Pradesh,Agra,"Shastripuram, Agra - Uppcb",2026-03-13 15:00:00,27.19862,77.92066,Co,12.0,22.0,17.0,2026,3,13,15,Friday,10.0,N/A,Summer
India,Uttar Pradesh,Baghpat,"Sardar Patel Inter College, Baghpat - Uppcb",2026-03-13 15:00:00,28.964949,77.278761,Pm10,98.0,214.5,148.0,2026,3,13,15,Friday,116.5,N/A,Summer
India,Uttar Pradesh,Ghaziabad,"Indirapuram, Ghaziabad - Uppcb",2026-03-13 15:00:00,28.646233,77.358075,Nh3,15.0,15.5,15.5,2026,3,13,15,Friday,0.5,N/A,Summer
India,Uttar Pradesh,Ghaziabad,"Indirapuram, Ghaziabad - Uppcb",2026-03-13 15:00:00,28.646233,77.358075,Ozone,16.0,114.0,57.0,2026,3,13,15,Friday,98.0,N/A,Summer
India,Uttar Pradesh,Ghaziabad,"Vasundhara, Ghaziabad - Uppcb",2026-03-13 15:00:00,28.6603346,77.3572563,Pm2.5,55.0,213.0,198.0,2026,3,13,15,Friday,158.0,N/A,Summer
India,Uttar Pradesh,Lucknow,"Gomti Nagar, Lucknow - Uppcb",2026-03-13 15:00:00,26.86812,81.005119,So2,11.0,12.0,11.0,2026,3,13,15,Friday,1.0,N/A,Summer
India,Uttar Pradesh,Lucknow,"Kendriya Vidyalaya, Lucknow - Cpcb",2026-03-13 15:00:00,26.906111,80.948222,Nh3,9.0,15.5,12.0,2026,3,13,15,Friday,6.5,N/A,Summer
India,Uttar Pradesh,Lucknow,"B R Ambedkar University, Lucknow - Uppcb",2026-03-13 15:00:00,26.766433,80.927299,Nh3,4.0,4.0,4.0,2026,3,13,15,Friday,0.0,N/A,Summer
India,Uttar Pradesh,Lucknow,"Lalbagh, Lucknow - Cpcb",2026-03-13 15:00:00,26.8458805,80.9365541,Nh3,12.0,15.5,15.5,2026,3,13,15,Friday,3.5,N/A,Summer
India,Uttar Pradesh,Khurja,"Kalindi Kunj, Khurja - Uppcb",2026-03-13 15:00:00,28.2348927,77.8683002,Nh3,1.0,1.0,1.0,2026,3,13,15,Friday,0.0,N/A,Summer
India,Uttarakhand,Rishikesh,"Shivaji Nagar, Rishikesh - Ukpcb",2026-03-13 15:00:00,30.075911,78.2859547,Pm10,48.0,80.0,58.0,2026,3,13,15,Friday,32.0,N/A,Summer
India,Uttarakhand,Rishikesh,"Shivaji Nagar, Rishikesh - Ukpcb",2026-03-13 15:00:00,30.075911,78.2859547,No2,17.0,25.0,21.0,2026,3,13,15,Friday,8.0,N/A,Summer
India,Uttarakhand,Rishikesh,"Shivaji Nagar, Rishikesh - Ukpcb",2026-03-13 15:00:00,30.075911,78.2859547,Nh3,5.0,15.5,11.0,2026,3,13,15,Friday,10.5,N/A,Summer
India,Uttarakhand,Rishikesh,"Shivaji Nagar, Rishikesh - Ukpcb",2026-03-13 15:00:00,30.075911,78.2859547,Co,28.0,37.0,37.0,2026,3,13,15,Friday,9.0,N/A,Summer
India,Uttarakhand,Rishikesh,"Shivaji Nagar, Rishikesh - Ukpcb",2026-03-13 15:00:00,30.075911,78.2859547,Ozone,79.0,114.0,84.0,2026,3,13,15,Friday,35.0,N/A,Summer
India,West Bengal,Asansol,"Asansol Court Area, Asansol - Wbpcb",2026-03-13 15:00:00,23.685297,86.945968,Nh3,3.0,9.0,5.0,2026,3,13,15,Friday,6.0,N/A,Summer
India,West Bengal,Asansol,"Evelyn Lodge, Asansol - Wbpcb",2026-03-13 15:00:00,23.697936,86.944395,Nh3,7.0,8.0,8.0,2026,3,13,15,Friday,1.0,N/A,Summer
India,West Bengal,Asansol,"Evelyn Lodge, Asansol - Wbpcb",2026-03-13 15:00:00,23.697936,86.944395,Co,20.0,61.0,27.0,2026,3,13,15,Friday,41.0,N/A,Summer
India,West Bengal,Asansol,"Mahabir Colliery, Asansol - Wbpcb",2026-03-13 15:00:00,23.618183,87.105718,Co,9.0,61.0,25.0,2026,3,13,15,Friday,52.0,N/A,Summer
India,West Bengal,Asansol,"Trivenidevi Bhalotia College, Asansol - Wbpcb",2026-03-13 15:00:00,23.616515,87.119133,No2,9.0,41.0,20.0,2026,3,13,15,Friday,32.0,N/A,Summer
India,West Bengal,Asansol,"Trivenidevi Bhalotia College, Asansol - Wbpcb",2026-03-13 15:00:00,23.616515,87.119133,Nh3,2.0,3.0,2.0,2026,3,13,15,Friday,1.0,N/A,Summer
